stop_id,stop_code,stop_name,stop_desc,stop_lat,stop_lon,zone_id,stop_url,location_type,parent_station,stop_timezone,wheelchair_boarding
"acc_4_1_1","1","Plaza de Castilla","Paseo de la Castellana 189",40.466820000000000,-3.689180000000000,,"http://www.crtm.es",2,"est_90_21",,0
"acc_4_1_1040","1","Ascensor","Plaza de Castilla 9",40.465550000000000,-3.688770000000000,,"http://www.crtm.es",2,"est_90_21",,0
"acc_4_1_1043","1","Intercambiador Superficie","Paseo de la Castellana 191 B",40.467280000000000,-3.689150000000000,,"http://www.crtm.es",2,"est_90_21",,0
"acc_4_1_1044","1","Ascensor","Paseo de la Castellana 189",40.467020000000000,-3.689180000000000,,"http://www.crtm.es",2,"est_90_21",,0
"acc_4_1_2","1","Castellana impares","Paseo de la Castellana 189",40.467220000000000,-3.689520000000000,,"http://www.crtm.es",2,"est_90_21",,0
"acc_4_1_3","1","Bravo Murillo","Calle de Bravo Murillo 377",40.466290000000000,-3.690360000000000,,"http://www.crtm.es",2,"est_90_21",,0
"acc_4_1_4","1","Paseo Castellana pares","Plaza de Castilla 9",40.465460000000000,-3.688910000000000,,"http://www.crtm.es",2,"est_90_21",,0
"acc_4_1_773","1","Intercambiador","Plaza de Castilla 3",40.466210000000000,-3.690280000000000,,"http://www.crtm.es",2,"est_90_21",,0
"acc_4_10_34","10","Barceló","Calle de Barceló 2",40.426280000000000,-3.700820000000000,,"http://www.crtm.es",2,"est_4_10",,0
"acc_4_10_35","10","Fuencarral","Calle de Fuencarral 78",40.426200000000000,-3.701030000000000,,"http://www.crtm.es",2,"est_4_10",,0
"acc_4_10_36","10","Tribunal de Cuentas","Calle de Fuencarral 81",40.425690000000000,-3.701110000000000,,"http://www.crtm.es",2,"est_4_10",,0
"acc_4_100_271","100","Avda. Poblados","Avda de los Poblados 41",40.385820000000000,-3.761050000000000,,"http://www.crtm.es",2,"est_90_1",,0
"acc_4_100_272","100","Maqueda","Calle de Maqueda SN",40.385970000000000,-3.760880000000000,,"http://www.crtm.es",2,"est_90_1",,0
"acc_4_100_273","100","Acceso RENFE","Avda de los Poblados 41",40.385760000000000,-3.761200000000000,,"http://www.crtm.es",2,"est_90_1",,0
"acc_4_100_274","100","Maqueda","Calle de Maqueda SN",40.385950000000000,-3.760850000000000,,"http://www.crtm.es",2,"est_90_1",,0
"acc_4_100_275","100","Avda. Poblados","Avda de los Poblados 41",40.385380000000000,-3.760670000000000,,"http://www.crtm.es",2,"est_90_1",,0
"acc_4_100_276","100","Terminal Autobuses","Calle de Valmojado SN",40.385300000000000,-3.760430000000000,,"http://www.crtm.es",2,"est_90_1",,0
"acc_4_100_277","100","Terminal Autobuses","Calle de Valmojado 293",40.385460000000000,-3.760430000000000,,"http://www.crtm.es",2,"est_90_1",,0
"acc_4_101_278","101","Padre Piquer","Calle de Padre Piquer 37",40.390850000000000,-3.765910000000000,,"http://www.crtm.es",2,"est_4_101",,0
"acc_4_102_279","102","Padre Piquer pares","Avda del Padre Piquer 8",40.394450000000000,-3.768270000000000,,"http://www.crtm.es",2,"est_4_102",,0
"acc_4_102_280","102","Padre Piquer impares","Avda del Padre Piquer 7",40.394690000000000,-3.768100000000000,,"http://www.crtm.es",2,"est_4_102",,0
"acc_4_103_281","103","Camino de Campamento s/n","Ctra del Zoo SN",40.403180000000000,-3.760900000000000,,"http://www.crtm.es",2,"est_4_103",,0
"acc_4_103_282","103","Ascensor","Ctra del Zoo SN",40.403310000000000,-3.761030000000000,,"http://www.crtm.es",2,"est_4_103",,0
"acc_4_104_1029","104","Ascensor nº1","Calle de Cuart de Poblet 1 B",40.399180000000000,-3.744640000000000,,"http://www.crtm.es",2,"est_4_104",,0
"acc_4_104_1030","104","Ascensor nº2","Calle de Cuart de Poblet 1 B",40.399150000000000,-3.744630000000000,,"http://www.crtm.es",2,"est_4_104",,0
"acc_4_104_1031","104","Ascensor nº3","Calle de Cuart de Poblet 1 B",40.399130000000000,-3.744630000000000,,"http://www.crtm.es",2,"est_4_104",,0
"acc_4_104_284","104","Alhambra pares","Calle de la Alhambra 56",40.399170000000000,-3.744540000000000,,"http://www.crtm.es",2,"est_4_104",,0
"acc_4_104_285","104","Alhambra impares","Calle de la Alhambra 33",40.399030000000000,-3.744220000000000,,"http://www.crtm.es",2,"est_4_104",,0
"acc_4_105_1033","105","Ascensor exterior nº1","Calle  Vía Carpetana 141",40.392780000000000,-3.740970000000000,,"http://www.crtm.es",2,"est_4_105",,0
"acc_4_105_1035","105","Nuestra Señora de Valvanera - via Carpetana - Ateca","Calle  Vía Carpetana 139",40.393320000000000,-3.740580000000000,,"http://www.crtm.es",2,"est_4_105",,0
"acc_4_105_1036","105","Ascensor exterior nº2","Calle  Vía Carpetana 139",40.393220000000000,-3.740690000000000,,"http://www.crtm.es",2,"est_4_105",,0
"acc_4_105_286","105","Vía Carpetana","Calle  Vía Carpetana 306",40.392770000000000,-3.741340000000000,,"http://www.crtm.es",2,"est_4_105",,0
"acc_4_107_287","107","Portalegre pares","Calle de Portalegre 98",40.386350000000000,-3.723480000000000,,"http://www.crtm.es",2,"est_4_107",,0
"acc_4_107_288","107","Portalegre impares","Calle de Portalegre 73",40.385840000000000,-3.723370000000000,,"http://www.crtm.es",2,"est_4_107",,0
"acc_4_108_289","108","Avda. Oporto pares","Avda de Oporto 4",40.385290000000000,-3.718530000000000,,"http://www.crtm.es",2,"est_90_36",,0
"acc_4_108_290","108","Pza. Fernández Ladreda","Plaza de Fernández Ladreda 5",40.385610000000000,-3.717760000000000,,"http://www.crtm.es",2,"est_90_36",,0
"acc_4_108_291","108","Ascensor","Plaza de Fernández Ladreda 5",40.385370000000000,-3.718150000000000,,"http://www.crtm.es",2,"est_90_36",,0
"acc_4_108_292","108","Marcelo Usera pares","Calle de Marcelo Usera 170",40.385290000000000,-3.716180000000000,,"http://www.crtm.es",2,"est_90_36",,0
"acc_4_108_293","108","Marcelo Usera impares","Plaza de Fernández Ladreda 2",40.385120000000000,-3.716720000000000,,"http://www.crtm.es",2,"est_90_36",,0
"acc_4_108_800","108","Acceso intercambiador","Calle  Vía Lusitana 2",40.384480000000000,-3.718230000000000,,"http://www.crtm.es",2,"est_90_36",,0
"acc_4_109_294","109","Amparo Usera","Calle de Amparo Usera 46",40.387030000000000,-3.706630000000000,,"http://www.crtm.es",2,"est_4_109",,0
"acc_4_109_295","109","Mirasierra","Calle de Mirasierra 41",40.388220000000000,-3.703740000000000,,"http://www.crtm.es",2,"est_4_109",,0
"acc_4_109_806","109","Ascensor exterior","Plaza de Amparo Usera  1",40.387010000000000,-3.706800000000000,,"http://www.crtm.es",2,"est_4_109",,0
"acc_4_11_37","11","Gran Vía","Calle  Gran Vía 21",40.419910000000000,-3.701300000000000,,"http://www.crtm.es",2,"est_4_11",,0
"acc_4_11_38","11","Gran Vía","Calle  Gran Vía 23",40.419920000000000,-3.701830000000000,,"http://www.crtm.es",2,"est_4_11",,0
"acc_4_11_39","11","Fuencarral","Calle  Gran vía 28",40.420130000000000,-3.701810000000000,,"http://www.crtm.es",2,"est_4_11",,0
"acc_4_11_40","11","Montera","Calle de la Montera 44",40.419510000000000,-3.701670000000000,,"http://www.crtm.es",2,"est_4_11",,0
"acc_4_111_296","111","Méndez Alvaro impares","Calle de Mendez Álvaro 73",40.396110000000000,-3.680600000000000,,"http://www.crtm.es",2,"est_90_13",,0
"acc_4_111_297","111","Méndez Alvaro pares","Calle de Méndez Álvaro 64 C",40.395940000000000,-3.680870000000000,,"http://www.crtm.es",2,"est_90_13",,0
"acc_4_111_299","111","Pedro Bosch","Calle de Pedro Bosch SN",40.396290000000000,-3.678820000000000,,"http://www.crtm.es",2,"est_90_13",,0
"acc_4_111_595","111","Retama","Calle de Pedro Bosch SN",40.395710000000000,-3.679740000000000,,"http://www.crtm.es",2,"est_90_13",,0
"acc_4_111_596","111","Ascensor exterior intercambiador","Calle del Ombu 20",40.394180000000000,-3.677490000000000,,"http://www.crtm.es",2,"est_90_13",,0
"acc_4_113_301","113","Doctor Esquerdo","Calle del Doctor Esquerdo 175",40.407070000000000,-3.669990000000000,,"http://www.crtm.es",2,"est_4_113",,0
"acc_4_113_302","113","Conde de Casal","Plaza del Conde de Casal 2",40.407020000000000,-3.670680000000000,,"http://www.crtm.es",2,"est_4_113",,0
"acc_4_113_303","113","Doctor Esquerdo impares","Calle del Doctor Esquerdo 159",40.408680000000000,-3.669800000000000,,"http://www.crtm.es",2,"est_4_113",,0
"acc_4_113_304","113","Doctor Esquerdo pares","Calle del Doctor Esquerdo 114",40.408700000000000,-3.670220000000000,,"http://www.crtm.es",2,"est_4_113",,0
"acc_4_113_801","113","Ascensor","Plaza del Conde de Casal 2",40.407010000000000,-3.670710000000000,,"http://www.crtm.es",2,"est_4_113",,0
"acc_4_114_1038","114","Ascensor exterior 1","Calle del Doctor Esquerdo 68",40.414610000000000,-3.669740000000000,,"http://www.crtm.es",2,"est_4_114",,0
"acc_4_114_1039","114","Ascensor exterior 2","Calle del Doctor Esquerdo 68",40.414570000000000,-3.669740000000000,,"http://www.crtm.es",2,"est_4_114",,0
"acc_4_114_305","114","Sainz de Baranda","Calle del Doctor Esquerdo 62",40.415480000000000,-3.669660000000000,,"http://www.crtm.es",2,"est_4_114",,0
"acc_4_114_306","114","José Martínez de Velasco","Calle de Doctor Esquerdo 103",40.415400000000000,-3.669280000000000,,"http://www.crtm.es",2,"est_4_114",,0
"acc_4_114_307","114","Moneda impares","Calle del Doctor Esquerdo 107",40.414690000000000,-3.669290000000000,,"http://www.crtm.es",2,"est_4_114",,0
"acc_4_114_308","114","Moneda pares","Calle del Doctor Esquerdo 66",40.414790000000000,-3.669730000000000,,"http://www.crtm.es",2,"est_4_114",,0
"acc_4_115_309","115","O´Donnell","Calle del Doctor Esquerdo 42",40.421500000000000,-3.669170000000000,,"http://www.crtm.es",2,"est_4_115",,0
"acc_4_115_310","115","Casa de la Moneda","Calle del Doctor Esquerdo 36",40.422660000000000,-3.669100000000000,,"http://www.crtm.es",2,"est_4_115",,0
"acc_4_115_311","115","J. Juan / Dr. Esquerdo pares","Calle del Doctor Esquerdo 34",40.423210000000000,-3.669050000000000,,"http://www.crtm.es",2,"est_4_115",,0
"acc_4_115_312","115","J. Juan / Dr. Esquerdo impares","Calle del Doctor Esquerdo 49",40.422820000000000,-3.668590000000000,,"http://www.crtm.es",2,"est_4_115",,0
"acc_4_119_313","119","República Argentina","Plaza de la República Argentina 8",40.444950000000000,-3.684880000000000,,"http://www.crtm.es",2,"est_4_119",,0
"acc_4_119_314","119","Joaquín Costa impares","Calle de Joaquín Costa 41",40.443690000000000,-3.683700000000000,,"http://www.crtm.es",2,"est_4_119",,0
"acc_4_119_315","119","Joaquín Costa pares","Calle de Joaquín Costa 26",40.443360000000000,-3.683940000000000,,"http://www.crtm.es",2,"est_4_119",,0
"acc_4_119_316","119","Joaquín Costa pares","Calle de Juan de la Cierva SN",40.443200000000000,-3.683440000000000,,"http://www.crtm.es",2,"est_4_119",,0
"acc_4_12_1034","12","Alcalá","Plaza de la Puerta del Sol 13",40.417070000000000,-3.702960000000000,,"http://www.crtm.es",2,"est_90_58",,0
"acc_4_12_1048","12","RENFE","Plaza de la Puerta del Sol 5",40.416850000000000,-3.702960000000000,,"http://www.crtm.es",2,"est_90_58",,0
"acc_4_12_41","12","Carretas","Plaza de la Puerta del Sol 7",40.416650000000000,-3.703530000000000,,"http://www.crtm.es",2,"est_90_58",,0
"acc_4_12_42","12","Carmen","Plaza de la Puerta del Sol 12",40.417140000000000,-3.703290000000000,,"http://www.crtm.es",2,"est_90_58",,0
"acc_4_12_43","12","Mayor","Plaza de la Puerta del Sol 9",40.416710000000000,-3.704580000000000,,"http://www.crtm.es",2,"est_90_58",,0
"acc_4_12_776","12","Ascensor","Plaza de la Puerta del Sol 8",40.416670000000000,-3.704410000000000,,"http://www.crtm.es",2,"est_90_58",,0
"acc_4_12_777","12","Preciados","Calle de Preciados 1",40.417240000000000,-3.704150000000000,,"http://www.crtm.es",2,"est_90_58",,0
"acc_4_120_317","120","Orense","Calle de Orense 3",40.447070000000000,-3.695380000000000,,"http://www.crtm.es",2,"est_90_71",,0
"acc_4_120_318","120","Agustín de Bethancourt","Calle de Agustín de Betancourt 25",40.446100000000000,-3.695240000000000,,"http://www.crtm.es",2,"est_90_71",,0
"acc_4_120_319","120","Centro Comercial","Paseo de la Castellana 71",40.446950000000000,-3.693140000000000,,"http://www.crtm.es",2,"est_90_71",,0
"acc_4_120_320","120","Edificio acceso RENFE - Arcadas Nuevos Ministerios","Calle de Raimundo Fernández Villaverde 67",40.446580000000000,-3.692430000000000,,"http://www.crtm.es",2,"est_90_71",,0
"acc_4_120_321","120","Ascensor nº1","Calle de Raimundo Fernandez Villaverde 67",40.446580000000000,-3.693010000000000,,"http://www.crtm.es",2,"est_90_71",,0
"acc_4_120_322","120","Ascensor nº2","Calle de Raimundo Fernandez Villaverde 67",40.446560000000000,-3.693010000000000,,"http://www.crtm.es",2,"est_90_71",,0
"acc_4_120_395","120","Pº de la Castellana impares","Paseo de la Castellana 67",40.445920000000000,-3.691700000000000,,"http://www.crtm.es",2,"est_90_71",,0
"acc_4_120_396","120","Pº de la Castellana pares","Paseo de la Castellana 110",40.445830000000000,-3.690730000000000,,"http://www.crtm.es",2,"est_90_71",,0
"acc_4_120_397","120","Pº de la Castellana impares (Bulevar)","Paseo de la Castellana 69",40.446620000000000,-3.691530000000000,,"http://www.crtm.es",2,"est_90_71",,0
"acc_4_120_398","120","Pº de la Castellana pares (Facturacion)","Paseo de la Castellana 100",40.444370000000000,-3.690940000000000,,"http://www.crtm.es",2,"est_90_71",,0
"acc_4_120_399","120","Edificio acceso RENFE - Arcadas Nuevos Ministerios","Paseo de la Castellana 69",40.446570000000000,-3.692180000000000,,"http://www.crtm.es",2,"est_90_71",,0
"acc_4_120_403","120","Edificio acceso RENFE - Raimundo Fernandez Villaverde","Paseo de la Castellana 67",40.444830000000000,-3.691750000000000,,"http://www.crtm.es",2,"est_90_71",,0
"acc_4_120_404","120","Ascensor nº5","Paseo de la Castellana 69",40.446520000000000,-3.691550000000000,,"http://www.crtm.es",2,"est_90_71",,0
"acc_4_120_405","120","Ascensor nº6","Paseo de la Castellana 100",40.444570000000000,-3.690910000000000,,"http://www.crtm.es",2,"est_90_71",,0
"acc_4_120_406","120","Ascensor exterior RENFE - Arcadas","Calle de Raimundo Fernández Villaverde 67",40.446570000000000,-3.692100000000000,,"http://www.crtm.es",2,"est_90_71",,0
"acc_4_120_603","120","Ascensor exterior RENFE - Arcadas","Calle de Raimundo Fernández Villaverde 67",40.446580000000000,-3.692500000000000,,"http://www.crtm.es",2,"est_90_71",,0
"acc_4_120_605","120","Edificio acceso RENFE - Raimundo Fernandez Villaverde","Calle de Raimundo Fernández Villaverde 67",40.446240000000000,-3.693680000000000,,"http://www.crtm.es",2,"est_90_71",,0
"acc_4_120_606","120","Ascensor exterior RENFE 1 - Raimundo Fernandez Villaverde","Calle de Raimundo Fernández Villaverde 67",40.446300000000000,-3.693680000000000,,"http://www.crtm.es",2,"est_90_71",,0
"acc_4_120_607","120","Ascensor exterior RENFE 2 - Raimundo Fernandez Villaverde","Calle de Raimundo Fernández Villaverde 67",40.446190000000000,-3.693710000000000,,"http://www.crtm.es",2,"est_90_71",,0
"acc_4_120_608","120","Ascensor exterior RENFE 1 - Raimundo Fernandez Villaverde","Paseo de la Castellana 67",40.445170000000000,-3.691990000000000,,"http://www.crtm.es",2,"est_90_71",,0
"acc_4_120_609","120","Ascensor exterior RENFE 2 - Raimundo Fernandez Villaverde","Paseo de la Castellana 67",40.445050000000000,-3.692000000000000,,"http://www.crtm.es",2,"est_90_71",,0
"acc_4_122_323","122","General Rodrigo","Calle del General Rodrigo 17",40.445700000000000,-3.714010000000000,,"http://www.crtm.es",2,"est_4_122",,0
"acc_4_122_324","122","Reina Victoria impares - G. el Bueno","Avda de la Reina Victoria 55",40.445980000000000,-3.713210000000000,,"http://www.crtm.es",2,"est_4_122",,0
"acc_4_122_325","122","Ascensor","Avda de la Reina Victoria 55",40.445890000000000,-3.713660000000000,,"http://www.crtm.es",2,"est_4_122",,0
"acc_4_122_326","122","Los Vascos","Calle de la Reina Victoria 32",40.447070000000000,-3.710230000000000,,"http://www.crtm.es",2,"est_4_122",,0
"acc_4_122_327","122","Reina Victoria pares","Calle de la Reina Victoria 30",40.447170000000000,-3.709790000000000,,"http://www.crtm.es",2,"est_4_122",,0
"acc_4_123_328","123","Gregorio del Amo","Avda de Gregorio del Amo 8",40.446190000000000,-3.720030000000000,,"http://www.crtm.es",2,"est_4_123",,0
"acc_4_123_329","123","Juan XXIII","Avda de la Moncloa 15",40.446640000000000,-3.717870000000000,,"http://www.crtm.es",2,"est_4_123",,0
"acc_4_124_330","124","Facultades","Plaza de Ramón y Cajal 1",40.443590000000000,-3.726580000000000,,"http://www.crtm.es",2,"est_4_124",,0
"acc_4_124_331","124","Avda. Complutense","Plaza de Ramón y Cajal 1",40.443560000000000,-3.726970000000000,,"http://www.crtm.es",2,"est_4_124",,0
"acc_4_124_332","124","Ascensor","Plaza de Ramón y Cajal 1",40.443630000000000,-3.726870000000000,,"http://www.crtm.es",2,"est_4_124",,0
"acc_4_127_1052","127","Ascensor","Paseo de la Florida 2",40.420860000000000,-3.720370000000000,,"http://www.crtm.es",2,"est_90_18",,0
"acc_4_127_333","127","Correspondencia RENFE","Paseo del Rey 12",40.421410000000000,-3.718590000000000,,"http://www.crtm.es",2,"est_90_18",,0
"acc_4_127_334","127","Intercambiador","Paseo de la Florida 2",40.420930000000000,-3.720450000000000,,"http://www.crtm.es",2,"est_90_18",,0
"acc_4_127_336","127","Correspondencia RENFE","Paseo del Rey 14",40.421530000000000,-3.718730000000000,,"http://www.crtm.es",2,"est_90_18",,0
"acc_4_127_610","127","Arcadas","Custa de San Vicente 40",40.420550000000000,-3.719680000000000,,"http://www.crtm.es",2,"est_90_18",,0
"acc_4_127_612","127","Centro Comercial","Custa de San Vicente 40",40.420840000000000,-3.718920000000000,,"http://www.crtm.es",2,"est_90_18",,0
"acc_4_127_613","127","Ascensor","Gta de San Vicente 1",40.420810000000000,-3.720120000000000,,"http://www.crtm.es",2,"est_90_18",,0
"acc_4_127_614","127","Centro Comercial","Paseo de la Florida 5",40.421370000000000,-3.721040000000000,,"http://www.crtm.es",2,"est_90_18",,0
"acc_4_128_339","128","Plaza Santa Cristina","Plaza de Santa Cristina 2",40.414230000000000,-3.727280000000000,,"http://www.crtm.es",2,"est_4_128",,0
"acc_4_128_340","128","Caramuel","Calle de Caramuel 1",40.413680000000000,-3.727060000000000,,"http://www.crtm.es",2,"est_4_128",,0
"acc_4_129_341","129","Pza. Alto de Extremadura","Paseo de Extremadura 158",40.409920000000000,-3.739050000000000,,"http://www.crtm.es",2,"est_4_129",,0
"acc_4_129_342","129","Francisco Brizuela","Paseo de Extremadura 147",40.409700000000000,-3.738840000000000,,"http://www.crtm.es",2,"est_4_129",,0
"acc_4_13_44","13","Conde de Romanones","Plaza de Tirso de Molina 14",40.412390000000000,-3.705050000000000,,"http://www.crtm.es",2,"est_4_13",,0
"acc_4_13_45","13","Magdalena","Plaza de Tirso de Molina 20",40.412450000000000,-3.703730000000000,,"http://www.crtm.es",2,"est_4_13",,0
"acc_4_130_343","130","Cebreros","Calle de Cebreros 41",40.404770000000000,-3.745620000000000,,"http://www.crtm.es",2,"est_4_130",,0
"acc_4_130_344","130","Higueras","Calle de las Higueras 49",40.404860000000000,-3.745050000000000,,"http://www.crtm.es",2,"est_4_130",,0
"acc_4_130_345","130","Ascensor","Calle de Cebreros 41",40.404770000000000,-3.745530000000000,,"http://www.crtm.es",2,"est_4_130",,0
"acc_4_132_346","132","Avda. de Niza impares","Avda de Niza 59",40.432560000000000,-3.607900000000000,,"http://www.crtm.es",2,"est_4_132",,0
"acc_4_132_802","132","Avda. de Niza pares","Avda de Niza 59",40.432600000000000,-3.607470000000000,,"http://www.crtm.es",2,"est_4_132",,0
"acc_4_133_347","133","Pobladura del Valle pares","Calle de Pobladura del Valle 4",40.427490000000000,-3.616170000000000,,"http://www.crtm.es",2,"est_4_133",,0
"acc_4_133_348","133","Pobladura del Valle impares","Calle de Pobladura del Valle 27",40.427890000000000,-3.615680000000000,,"http://www.crtm.es",2,"est_4_133",,0
"acc_4_134_349","134","Amposta","Calle de Alberique 4",40.427650000000000,-3.622740000000000,,"http://www.crtm.es",2,"est_4_134",,0
"acc_4_134_350","134","Castillo de Uclés","Calle del Castillo de Uclés 11",40.427860000000000,-3.625810000000000,,"http://www.crtm.es",2,"est_4_134",,0
"acc_4_134_351","134","Zaratán","Calle de Zaratán 2",40.428420000000000,-3.625640000000000,,"http://www.crtm.es",2,"est_4_134",,0
"acc_4_135_352","135","Hermanos García Noblejas","Calle de Luis del Campo SN",40.429170000000000,-3.632030000000000,,"http://www.crtm.es",2,"est_4_135",,0
"acc_4_135_353","135","José Arcones Gil","Calle de José Arcones Gil 106",40.428210000000000,-3.634190000000000,,"http://www.crtm.es",2,"est_4_135",,0
"acc_4_136_354","136","Ascao","Calle de Ascao 29",40.430170000000000,-3.641150000000000,,"http://www.crtm.es",2,"est_4_136",,0
"acc_4_138_355","138","Martínez Villergas","Calle de Martínez Villergas 1",40.439210000000000,-3.651730000000000,,"http://www.crtm.es",2,"est_4_138",,0
"acc_4_138_356","138","Virgen del Romero","Plaza de la Virgen del Romero 1",40.438550000000000,-3.651640000000000,,"http://www.crtm.es",2,"est_4_138",,0
"acc_4_139_357","139","Avda. de Bruselas impares","Avda de Bruselas 57",40.439450000000000,-3.663070000000000,,"http://www.crtm.es",2,"est_4_139",,0
"acc_4_139_358","139","Avda. de Bruselas pares","Avda de Bruselas 56",40.439450000000000,-3.662880000000000,,"http://www.crtm.es",2,"est_4_139",,0
"acc_4_14_46","14","Amor de Dios","Calle del Amor de Dios 14",40.412300000000000,-3.698650000000000,,"http://www.crtm.es",2,"est_4_14",,0
"acc_4_14_47","14","Magdalena","Plaza de Antón Martín 1",40.412420000000000,-3.699580000000000,,"http://www.crtm.es",2,"est_4_14",,0
"acc_4_14_49","14","Atocha impares","Calle de Atocha 85",40.411520000000000,-3.697330000000000,,"http://www.crtm.es",2,"est_4_14",,0
"acc_4_14_50","14","Atocha pares","Calle de Atocha 76",40.411420000000000,-3.697420000000000,,"http://www.crtm.es",2,"est_4_14",,0
"acc_4_140_359","140","Avda. de América pares","Avda de América 32",40.439060000000000,-3.672030000000000,,"http://www.crtm.es",2,"est_4_140",,0
"acc_4_140_360","140","Avda. de América impares","Avda de América 37",40.439450000000000,-3.672190000000000,,"http://www.crtm.es",2,"est_4_140",,0
"acc_4_142_361","142","Miguel Angel","Calle de Miguel Ángel 33",40.437920000000000,-3.691380000000000,,"http://www.crtm.es",2,"est_4_142",,0
"acc_4_142_362","142","José Abascal","Calle de José Abascal 65",40.438230000000000,-3.691410000000000,,"http://www.crtm.es",2,"est_4_142",,0
"acc_4_142_363","142","Ascensor","Calle de José Abascal 58",40.437970000000000,-3.691670000000000,,"http://www.crtm.es",2,"est_4_142",,0
"acc_4_143_364","143","José Abascal - Alonso Cano","Calle de José Abascal 26",40.438280000000000,-3.698190000000000,,"http://www.crtm.es",2,"est_4_143",,0
"acc_4_143_365","143","José Abascal - Ponzano","Calle de José Abascal 20",40.438310000000000,-3.698880000000000,,"http://www.crtm.es",2,"est_4_143",,0
"acc_4_143_366","143","Ascensor","Calle de José Abascal 20",40.438300000000000,-3.699200000000000,,"http://www.crtm.es",2,"est_4_143",,0
"acc_4_145_367","145","Cea Bermúdez pares - Gaztambide","Calle de Cea Bermúdez 64",40.439220000000000,-3.714970000000000,,"http://www.crtm.es",2,"est_4_145",,0
"acc_4_145_368","145","Cea Bermúdez impares - Gaztambide","Calle de Cea Bermúdez 55",40.439000000000000,-3.714980000000000,,"http://www.crtm.es",2,"est_4_145",,0
"acc_4_145_369","145","Ascensor","Calle de Cea Bermúdez 51",40.438980000000000,-3.714260000000000,,"http://www.crtm.es",2,"est_4_145",,0
"acc_4_145_370","145","Cea Bermúdez pares - Guzmán el Bueno","Calle de Cea Bermúdez 50",40.439150000000000,-3.713060000000000,,"http://www.crtm.es",2,"est_4_145",,0
"acc_4_145_371","145","Cea Bermúdez impares - Guzmán el Bueno","Calle de Cea Bermúdez 43",40.438970000000000,-3.713020000000000,,"http://www.crtm.es",2,"est_4_145",,0
"acc_4_147_372","147","Moguer","Calle de Moguer 1",40.456630000000000,-3.712400000000000,,"http://www.crtm.es",2,"est_4_147",,0
"acc_4_147_373","147","Alejandro Rodríguez","Calle de Alejandro Rodríguez 39",40.456310000000000,-3.711930000000000,,"http://www.crtm.es",2,"est_4_147",,0
"acc_4_147_374","147","Pablo Iglesias impares - Francos Rodriguez","Avda de Pablo Iglesias 93",40.457170000000000,-3.711870000000000,,"http://www.crtm.es",2,"est_4_147",,0
"acc_4_147_375","147","Pablo Iglesias pares - Francos Rodriguez","Avda de Pablo Iglesias 96",40.457140000000000,-3.711620000000000,,"http://www.crtm.es",2,"est_4_147",,0
"acc_4_147_376","147","Ascensor","Avda de Pablo Iglesias 92",40.456550000000000,-3.711950000000000,,"http://www.crtm.es",2,"est_4_147",,0
"acc_4_148_377","148","San Restituto","Calle de San Restituto 72",40.465130000000000,-3.716750000000000,,"http://www.crtm.es",2,"est_4_148",,0
"acc_4_148_378","148","Ascensor","Calle de San Restituto 72",40.464990000000000,-3.716580000000000,,"http://www.crtm.es",2,"est_4_148",,0
"acc_4_148_379","148","Emerenciana Zurilla","Calle de San Restituto 58",40.464930000000000,-3.714980000000000,,"http://www.crtm.es",2,"est_4_148",,0
"acc_4_148_380","148","Armenteros","Calle de Arciniega 11",40.464460000000000,-3.714490000000000,,"http://www.crtm.es",2,"est_4_148",,0
"acc_4_149_381","149","Valderrodrigo - Valdesangil","Calle de Valderrodrigo 82",40.470120000000000,-3.717750000000000,,"http://www.crtm.es",2,"est_4_149",,0
"acc_4_149_382","149","Valderrodrigo","Calle de Valderrodrigo 82",40.469950000000000,-3.718090000000000,,"http://www.crtm.es",2,"est_4_149",,0
"acc_4_149_383","149","Ascensor","Calle de Valderrodrigo 55",40.470260000000000,-3.717880000000000,,"http://www.crtm.es",2,"est_4_149",,0
"acc_4_15_51","15","Atocha","Plaza del Emperador Carlos V 11",40.409000000000000,-3.692470000000000,,"http://www.crtm.es",2,"est_4_15",,0
"acc_4_15_52","15","Ministerio","Paseo de la Infanta Isabel 1",40.408410000000000,-3.690520000000000,,"http://www.crtm.es",2,"est_4_15",,0
"acc_4_150_384","150","Vereda de Ganapanes impares","Cmno de Ganapanes 35",40.476020000000000,-3.716110000000000,,"http://www.crtm.es",2,"est_4_150",,0
"acc_4_150_385","150","Vereda de Ganapanes pares","Cmno de Ganapanes SN",40.476070000000000,-3.715840000000000,,"http://www.crtm.es",2,"est_4_150",,0
"acc_4_150_386","150","Ascensor","Cmno de Ganapanes 35",40.475850000000000,-3.716130000000000,,"http://www.crtm.es",2,"est_4_150",,0
"acc_4_151_387","151","Islas Cíes","Calle de las Islas Cíes 23",40.480090000000000,-3.718350000000000,,"http://www.crtm.es",2,"est_4_151",,0
"acc_4_151_388","151","Ascensor","Calle de las Islas Cíes 21",40.480040000000000,-3.718340000000000,,"http://www.crtm.es",2,"est_4_151",,0
"acc_4_152_389","152","Ramón Gómez de la Serna","Calle de Ramón Gómez de la Serna 37",40.484620000000000,-3.723290000000000,,"http://www.crtm.es",2,"est_4_152",,0
"acc_4_152_390","152","Riscos de Polanco","Calle de Riscos de Polanco 5",40.485170000000000,-3.722890000000000,,"http://www.crtm.es",2,"est_4_152",,0
"acc_4_152_391","152","Ascensor","Calle de Riscos de Polanco 3",40.484980000000000,-3.722880000000000,,"http://www.crtm.es",2,"est_4_152",,0
"acc_4_154_392","154","Camino de Peñagrande","Calle de Gloria Fuertes 1",40.495190000000000,-3.725590000000000,,"http://www.crtm.es",2,"est_4_154",,0
"acc_4_154_394","154","Ascensor","Calle de Gloria Fuertes 1",40.495000000000000,-3.725560000000000,,"http://www.crtm.es",2,"est_4_154",,0
"acc_4_156_409","156","Príncipe de Vergara impares - Colombia","Calle del Príncipe de Vergara 263",40.456700000000000,-3.677170000000000,,"http://www.crtm.es",2,"est_4_156",,0
"acc_4_156_410","156","Príncipe de Vergara pares - Colombia","Calle del Príncipe de Vergara 260",40.456480000000000,-3.676920000000000,,"http://www.crtm.es",2,"est_4_156",,0
"acc_4_156_411","156","Príncipe de Vergara impares - Pza. Rep. Dominicana","Calle del Príncipe de Vergara 275",40.458110000000000,-3.677010000000000,,"http://www.crtm.es",2,"est_4_156",,0
"acc_4_156_412","156","Príncipe de Vergara pares - Pza. Rep. Dominicana","Calle del Príncipe de Vergara 268",40.457870000000000,-3.676690000000000,,"http://www.crtm.es",2,"est_4_156",,0
"acc_4_156_413","156","Ascensor","Calle de Colombia 5",40.457210000000000,-3.677230000000000,,"http://www.crtm.es",2,"est_4_156",,0
"acc_4_158_414","158","Avda. Capital de España-Madrid","Avda de la Capital de España Madrid 13",40.463430000000000,-3.616190000000000,,"http://www.crtm.es",2,"est_4_158",,0
"acc_4_158_415","158","Feria de Madrid pabellones impares","Avda del Partenón 5",40.464050000000000,-3.616810000000000,,"http://www.crtm.es",2,"est_4_158",,0
"acc_4_158_416","158","Feria de Madrid pabellones pares","Avda del Partenón 5",40.464080000000000,-3.615800000000000,,"http://www.crtm.es",2,"est_4_158",,0
"acc_4_158_417","158","Ascensor","Avda del Partenón 5",40.464190000000000,-3.615940000000000,,"http://www.crtm.es",2,"est_4_158",,0
"acc_4_159_418","159","Terminales 123","Avda de la Hispanidad 1",40.468240000000000,-3.570990000000000,,"http://www.crtm.es",2,"est_90_34",,0
"acc_4_159_419","159","Ascensor","Avda de la Hispanidad 1",40.468230000000000,-3.571140000000000,,"http://www.crtm.es",2,"est_90_34",,0
"acc_4_159_420","159","Ascensor","Avda de la Hispanidad 1",40.467910000000000,-3.571910000000000,,"http://www.crtm.es",2,"est_90_34",,0
"acc_4_16_53","16","Alfonso XII","Paseo de la Infanta Isabel 11",40.407540000000000,-3.689160000000000,,"http://www.crtm.es",2,"est_90_54",,0
"acc_4_16_54","16","Paseo Infanta Isabel","Paseo de la Infanta Isabel 15",40.407010000000000,-3.688180000000000,,"http://www.crtm.es",2,"est_90_54",,0
"acc_4_16_572","16","Ascensor","Paseo de la Infanta Isabel 11",40.407460000000000,-3.688990000000000,,"http://www.crtm.es",2,"est_90_54",,0
"acc_4_160_421","160","Avda. Logroño","Avda de Logroño 347",40.475760000000000,-3.582550000000000,,"http://www.crtm.es",2,"est_4_160",,0
"acc_4_160_422","160","Ascensor","Avda de Logroño 347",40.475800000000000,-3.582530000000000,,"http://www.crtm.es",2,"est_4_160",,0
"acc_4_161_423","161","Ginzo de Limia","Calle de Ginzo de Limia 47",40.483770000000000,-3.706900000000000,,"http://www.crtm.es",2,"est_4_161",,0
"acc_4_161_424","161","Cardenal Herrera Oria","Calle de Ginzo de Limia SN",40.485310000000000,-3.708470000000000,,"http://www.crtm.es",2,"est_4_161",,0
"acc_4_162_425","162","Ginzo de Limia impares","Calle de Ginzo de Limia 29",40.477970000000000,-3.704000000000000,,"http://www.crtm.es",2,"est_4_162",,0
"acc_4_162_426","162","Ginzo de Limia pares","Calle de Ginzo de Limia 36",40.478070000000000,-3.703540000000000,,"http://www.crtm.es",2,"est_4_162",,0
"acc_4_162_427","162","Melchor Fernández Almagro","Calle de Ginzo de Limia 11",40.476250000000000,-3.703320000000000,,"http://www.crtm.es",2,"est_4_162",,0
"acc_4_162_428","162","Ginzo de Limia pares","Calle de Ginzo de Limia 2",40.476320000000000,-3.702940000000000,,"http://www.crtm.es",2,"est_4_162",,0
"acc_4_163_429","163","Avda. Asturias impares","Avda de Asturias 33",40.469450000000000,-3.696100000000000,,"http://www.crtm.es",2,"est_4_163",,0
"acc_4_163_430","163","Avda. Asturias pares","Avda de Asturias 34",40.469720000000000,-3.695710000000000,,"http://www.crtm.es",2,"est_4_163",,0
"acc_4_165_431","165","Mateo Inurria","Calle de Mateo Inurria 58",40.467460000000000,-3.679290000000000,,"http://www.crtm.es",2,"est_4_165",,0
"acc_4_166_432","166","Avda. de Pío XII","Avda de Pío XII 4",40.462620000000000,-3.675960000000000,,"http://www.crtm.es",2,"est_4_166",,0
"acc_4_166_433","166","Avda. de Pío XII","Avda de Pío XII 16",40.465010000000000,-3.675520000000000,,"http://www.crtm.es",2,"est_4_166",,0
"acc_4_168_434","168","Plaza de Cataluña","Calle del Príncipe de Vergara 204",40.449430000000000,-3.677670000000000,,"http://www.crtm.es",2,"est_4_168",,0
"acc_4_168_435","168","Príncipe de Vergara","Calle de Príncipe de Vergara 246",40.452330000000000,-3.677250000000000,,"http://www.crtm.es",2,"est_4_168",,0
"acc_4_169_436","169","Príncipe de Vergara pares","Calle del Príncipe de Vergara 146",40.446260000000000,-3.678030000000000,,"http://www.crtm.es",2,"est_4_169",,0
"acc_4_169_437","169","Príncipe de Vergara impares","Calle del Príncipe de Vergara 157",40.446280000000000,-3.678340000000000,,"http://www.crtm.es",2,"est_4_169",,0
"acc_4_169_438","169","Príncipe de Vergara impares","Calle del Príncipe de Vergara 131",40.443130000000000,-3.678690000000000,,"http://www.crtm.es",2,"est_4_169",,0
"acc_4_169_439","169","Príncipe de Vergara pares","Calle del Príncipe de Vergara 128",40.443110000000000,-3.678390000000000,,"http://www.crtm.es",2,"est_4_169",,0
"acc_4_17_57","17","Menéndez Pelayo impares","Avda de Menéndez Pelayo 123",40.404430000000000,-3.680670000000000,,"http://www.crtm.es",2,"est_4_17",,0
"acc_4_17_58","17","Menéndez Pelayo pares","Avda de Menéndez Pelayo 44",40.404520000000000,-3.680910000000000,,"http://www.crtm.es",2,"est_4_17",,0
"acc_4_17_59","17","Gutenberg","Calle de Gutenberg 1",40.404890000000000,-3.681710000000000,,"http://www.crtm.es",2,"est_4_17",,0
"acc_4_173_440","173","Ibiza","Calle de Ibiza 7",40.418360000000000,-3.678030000000000,,"http://www.crtm.es",2,"est_4_173",,0
"acc_4_175_441","175","Camino de los Vinateros impares","Calle del Camino de los Vinateros 1",40.411210000000000,-3.660110000000000,,"http://www.crtm.es",2,"est_4_175",,0
"acc_4_175_442","175","Camino de los Vinateros pares","Calle del Camino de los Vinateros 12",40.410610000000000,-3.660170000000000,,"http://www.crtm.es",2,"est_4_175",,0
"acc_4_175_443","175","Estrella Polar","Calle de Sirio 24",40.411770000000000,-3.663420000000000,,"http://www.crtm.es",2,"est_4_175",,0
"acc_4_176_444","176","Vinateros impares","Calle del Camino de los Vinateros 75",40.409930000000000,-3.650130000000000,,"http://www.crtm.es",2,"est_4_176",,0
"acc_4_176_445","176","Corregidor José de Pasamonte","Calle del Camino de los Vinateros 104",40.409510000000000,-3.649900000000000,,"http://www.crtm.es",2,"est_4_176",,0
"acc_4_176_446","176","Vinateros pares","Calle del Camino de los Vinateros 59",40.410280000000000,-3.652700000000000,,"http://www.crtm.es",2,"est_4_176",,0
"acc_4_176_447","176","Arroyo Belincoso","Calle del Arroyo Belincoso 36",40.410050000000000,-3.652460000000000,,"http://www.crtm.es",2,"est_4_176",,0
"acc_4_177_448","177","Vinateros impares","Calle del Camino de los Vinateros 119",40.406980000000000,-3.644090000000000,,"http://www.crtm.es",2,"est_4_177",,0
"acc_4_177_449","177","Vinateros pares","Calle del Camino de los Vinateros 172",40.406690000000000,-3.644160000000000,,"http://www.crtm.es",2,"est_4_177",,0
"acc_4_177_450","177","Vinateros","Calle del Pico de los Artilleros 126",40.405380000000000,-3.641490000000000,,"http://www.crtm.es",2,"est_4_177",,0
"acc_4_177_451","177","Pico de Artilleros","Calle del Pico de los Artilleros 59",40.405050000000000,-3.641610000000000,,"http://www.crtm.es",2,"est_4_177",,0
"acc_4_178_452","178","Hacienda de Pavones impares","Calle de la Hacienda de Pavones 215",40.400840000000000,-3.635500000000000,,"http://www.crtm.es",2,"est_4_178",,0
"acc_4_178_453","178","Hacienda de Pavones pares","Calle de la Hacienda de Pavones 340",40.400660000000000,-3.635500000000000,,"http://www.crtm.es",2,"est_4_178",,0
"acc_4_178_803","178","Terminal Autobuses","Calle de la Hacienda de Pavones 342",40.400560000000000,-3.635160000000000,,"http://www.crtm.es",2,"est_4_178",,0
"acc_4_179_454","179","Bulevar Indalecio Prieto - Raya","Bulv de Indalecio Prieto 20 A",40.400980000000000,-3.621160000000000,,"http://www.crtm.es",2,"est_4_179",,0
"acc_4_179_455","179","Ascensor","Bulv de Indalecio Prieto 22",40.400800000000000,-3.621330000000000,,"http://www.crtm.es",2,"est_4_179",,0
"acc_4_179_456","179","Bulevar Indalecio Prieto - Los Pinilla","Bulv de Indalecio Prieto 33",40.399010000000000,-3.621990000000000,,"http://www.crtm.es",2,"est_4_179",,0
"acc_4_18_1050","18","Ascensor","Calle del Doctor Esquerdo 219",40.401570000000000,-3.674280000000000,,"http://www.crtm.es",2,"est_4_18",,0
"acc_4_18_60","18","Doctor Esquerdo pares","Calle del Doctor Esquerdo 184",40.401550000000000,-3.674790000000000,,"http://www.crtm.es",2,"est_4_18",,0
"acc_4_18_61","18","Doctor Esquerdo impares","Calle del Doctor Esquerdo 221",40.401470000000000,-3.674380000000000,,"http://www.crtm.es",2,"est_4_18",,0
"acc_4_18_62","18","Sánchez Barcaíztegui","Calle de Sánchez Barcaiztegui 1",40.402300000000000,-3.676150000000000,,"http://www.crtm.es",2,"est_4_18",,0
"acc_4_180_457","180","Pº Artilleros impares","Paseo de los Artilleros 35",40.404520000000000,-3.608890000000000,,"http://www.crtm.es",2,"est_4_180",,0
"acc_4_180_458","180","Pº Artilleros pares","Paseo de los Artilleros 14",40.404820000000000,-3.609170000000000,,"http://www.crtm.es",2,"est_4_180",,0
"acc_4_180_459","180","Ascensor","Paseo de los Artilleros 14",40.404330000000000,-3.609240000000000,,"http://www.crtm.es",2,"est_4_180",,0
"acc_4_181_460","181","San Cipriano pares","Calle de San Cipriano 44",40.403900000000000,-3.604830000000000,,"http://www.crtm.es",2,"est_4_181",,0
"acc_4_181_461","181","San Cipriano impares","Calle de San Cipriano 55",40.403990000000000,-3.601400000000000,,"http://www.crtm.es",2,"est_4_181",,0
"acc_4_181_462","181","Ascensor","Calle de San Cipriano 52",40.403850000000000,-3.603670000000000,,"http://www.crtm.es",2,"est_4_181",,0
"acc_4_182_463","182","Terminal de Autobuses","Calle de San Cipriano 85",40.401400000000000,-3.595880000000000,,"http://www.crtm.es",2,"est_4_182",,0
"acc_4_182_464","182","Terminal Autobús - RENFE","Calle de San Cipriano 85",40.401420000000000,-3.595830000000000,,"http://www.crtm.es",2,"est_4_182",,0
"acc_4_182_465","182","Ascensor no acceso independiente","Calle de San Cipriano 85",40.401330000000000,-3.595840000000000,,"http://www.crtm.es",2,"est_4_182",,0
"acc_4_183_467","183","Pº Ferrocarril","Paseo  Ferrocarril 9",40.367400000000000,-3.548410000000000,,"http://www.crtm.es",2,"est_4_183",,0
"acc_4_184_468","184","Wenceslao Garcia","Calle de Wenceslao García SN",40.328450000000000,-3.520350000000000,,"http://www.crtm.es",2,"est_4_184",,0
"acc_4_185_469","185","Ctra. Campo Real","Ctra de Campo Real 20",40.318840000000000,-3.477820000000000,,"http://www.crtm.es",2,"est_4_185",,0
"acc_4_186_470","186","Pº de la Estación","Paseo de la Estación 37",40.303530000000000,-3.447500000000000,,"http://www.crtm.es",2,"est_4_186",,0
"acc_4_187_471","187","Barrio Sta. Ana","Calle de la Fuente Chica 23",40.495090000000000,-3.693260000000000,,"http://www.crtm.es",2,"est_4_187",,0
"acc_4_188_472","188","Cdad. Sanitaria La Paz","Paseo de la Castellana 261",40.480230000000000,-3.685890000000000,,"http://www.crtm.es",2,"est_4_188",,0
"acc_4_188_473","188","San Modesto","Calle de San Modesto 10",40.483450000000000,-3.687110000000000,,"http://www.crtm.es",2,"est_4_188",,0
"acc_4_19_63","19","Albufera pares","Avda de la Albufera 12",40.397660000000000,-3.668150000000000,,"http://www.crtm.es",2,"est_4_19",,0
"acc_4_19_64","19","Albufera impares","Avda de la Albufera 9",40.397800000000000,-3.668080000000000,,"http://www.crtm.es",2,"est_4_19",,0
"acc_4_19_65","19","Peña Prieta","Avda de Peña Prieta 2",40.398510000000000,-3.668970000000000,,"http://www.crtm.es",2,"est_4_19",,0
"acc_4_191_475","191","Paseo Castellana impares","Paseo de la Castellana 125",40.458460000000000,-3.690310000000000,,"http://www.crtm.es",2,"est_4_191",,0
"acc_4_191_476","191","Paseo Castellana pares","Paseo de la Castellana 162",40.458460000000000,-3.689650000000000,,"http://www.crtm.es",2,"est_4_191",,0
"acc_4_192_477","192","Plaza de Lima","Paseo de la Castellana 101",40.451510000000000,-3.691310000000000,,"http://www.crtm.es",2,"est_4_192",,0
"acc_4_192_478","192","Paseo Castellana pares","Paseo de la Castellana 136",40.451450000000000,-3.690390000000000,,"http://www.crtm.es",2,"est_4_192",,0
"acc_4_192_479","192","Paseo Castellana impares","Paseo de la Castellana 101",40.453830000000000,-3.690760000000000,,"http://www.crtm.es",2,"est_4_192",,0
"acc_4_192_480","192","Paseo Castellana pares","Paseo de la Castellana 142 B",40.453810000000000,-3.690260000000000,,"http://www.crtm.es",2,"est_4_192",,0
"acc_4_199_481","199","El Lago","Paseo de la Puerta del Ángel SN",40.416520000000000,-3.734770000000000,,"http://www.crtm.es",2,"est_4_199",,0
"acc_4_2_5","2","Capitán Blanco Argibay","Calle de Bravo Murillo 324",40.464090000000000,-3.695770000000000,,"http://www.crtm.es",2,"est_4_2",,0
"acc_4_2_6","2","Aníbal","Calle de Bravo Murillo 350",40.464790000000000,-3.693990000000000,,"http://www.crtm.es",2,"est_4_2",,0
"acc_4_20_66","20","Norte pares","Avda de la Albufera 54",40.396150000000000,-3.665270000000000,,"http://www.crtm.es",2,"est_4_20",,0
"acc_4_20_67","20","Norte impares","Avda de la Albufera 47",40.396260000000000,-3.665170000000000,,"http://www.crtm.es",2,"est_4_20",,0
"acc_4_20_68","20","Sur impares","Avda de la Albufera 69",40.395360000000000,-3.663410000000000,,"http://www.crtm.es",2,"est_4_20",,0
"acc_4_20_69","20","Sur pares","Avda de la Albufera 76",40.395230000000000,-3.663520000000000,,"http://www.crtm.es",2,"est_4_20",,0
"acc_4_200_482","200","Villamanín","Calle de Villamanin 27",40.407660000000000,-3.752880000000000,,"http://www.crtm.es",2,"est_4_200",,0
"acc_4_200_483","200","Venta del Batán","Paseo de la Venta 1",40.408050000000000,-3.753230000000000,,"http://www.crtm.es",2,"est_4_200",,0
"acc_4_202_484","202","Sedano","Calle de Fuentesauco 44",40.397110000000000,-3.774110000000000,,"http://www.crtm.es",2,"est_4_202",,0
"acc_4_202_485","202","Crta. Carabanchel - Aravaca","Calle de Arenas de San Pedro 2",40.397090000000000,-3.774790000000000,,"http://www.crtm.es",2,"est_4_202",,0
"acc_4_202_486","202","Ascensor","Ctra de Carabanchel a Aravaca 56",40.397180000000000,-3.774210000000000,,"http://www.crtm.es",2,"est_4_202",,0
"acc_4_203_487","203","Pº de Extremadura","Paseo de Extremadura 573",40.377570000000000,-3.792500000000000,,"http://www.crtm.es",2,"est_4_203",,0
"acc_4_203_488","203","Pº de los Húsares","Paseo de Húsares 46",40.378410000000000,-3.792490000000000,,"http://www.crtm.es",2,"est_4_203",,0
"acc_4_203_489","203","Ascensor nº2","Paseo de Extremadura 573",40.377580000000000,-3.792460000000000,,"http://www.crtm.es",2,"est_4_203",,0
"acc_4_203_490","203","Ascensor nº1","Col  Militar de Cuatro Vientos 6 A",40.378220000000000,-3.792740000000000,,"http://www.crtm.es",2,"est_4_203",,0
"acc_4_204_491","204","Avenida de la Libertad pares","Avda de la Libertad 2",40.349620000000000,-3.807350000000000,,"http://www.crtm.es",2,"est_4_204",,0
"acc_4_204_492","204","Avenida de la Libertad impares","Avda de la Libertad 13",40.349820000000000,-3.807680000000000,,"http://www.crtm.es",2,"est_4_204",,0
"acc_4_204_493","204","Ascensor","Avda de la Libertad 13",40.350010000000000,-3.807450000000000,,"http://www.crtm.es",2,"est_4_204",,0
"acc_4_205_494","205","Avenida de la Libertad pares","Avda de la Libertad 2",40.345430000000000,-3.811610000000000,,"http://www.crtm.es",2,"est_4_205",,0
"acc_4_205_495","205","Avenida de la Libertad impares","Avda de la Libertad 3",40.345990000000000,-3.811530000000000,,"http://www.crtm.es",2,"est_4_205",,0
"acc_4_205_496","205","Ascensor","Avda de la Libertad 2",40.345570000000000,-3.811520000000000,,"http://www.crtm.es",2,"est_4_205",,0
"acc_4_205_497","205","Olímpico Francisco Fernández Ochoa","Calle  Olímpico Francisco Fernández Ochoa SN",40.344740000000000,-3.812920000000000,,"http://www.crtm.es",2,"est_4_205",,0
"acc_4_207_498","207","Avda. de Abrantes impares","Avda de Abrantes 79",40.380520000000000,-3.728250000000000,,"http://www.crtm.es",2,"est_4_207",,0
"acc_4_207_499","207","Avda. de Abrantes pares","Avda de Abrantes 52",40.381040000000000,-3.728090000000000,,"http://www.crtm.es",2,"est_4_207",,0
"acc_4_207_500","207","Ascensor","Avda de Abrantes 54",40.380670000000000,-3.728350000000000,,"http://www.crtm.es",2,"est_4_207",,0
"acc_4_208_501","208","Avda. de Abrantes pares - Besolla","Avda de Abrantes 122",40.376030000000000,-3.734370000000000,,"http://www.crtm.es",2,"est_4_208",,0
"acc_4_208_502","208","Avda. de Abrantes impares - Besolla","Avda de Abrantes 289",40.375870000000000,-3.734060000000000,,"http://www.crtm.es",2,"est_4_208",,0
"acc_4_208_503","208","Ascensor","Avda de Abrantes 122",40.375870000000000,-3.734600000000000,,"http://www.crtm.es",2,"est_4_208",,0
"acc_4_21_70","21","Albufera pares","Avda de la Albufera 108",40.393300000000000,-3.659850000000000,,"http://www.crtm.es",2,"est_4_21",,0
"acc_4_21_71","21","Rogelio Folgueras","Avda de la Albufera 117",40.393420000000000,-3.659750000000000,,"http://www.crtm.es",2,"est_4_21",,0
"acc_4_21_72","21","Albufera impares","Avda de la Albufera 145",40.392360000000000,-3.657740000000000,,"http://www.crtm.es",2,"est_4_21",,0
"acc_4_21_73","21","Teniente Muñoz Díaz","Avda de la Albufera 130",40.392240000000000,-3.657850000000000,,"http://www.crtm.es",2,"est_4_21",,0
"acc_4_210_504","210","Avda. de Leganés","Avda de Leganés SN",40.349850000000000,-3.821510000000000,,"http://www.crtm.es",2,"est_4_210",,0
"acc_4_210_505","210","Ascensor","Avda de Leganés SN",40.349570000000000,-3.821050000000000,,"http://www.crtm.es",2,"est_4_210",,0
"acc_4_211_506","211","Avda. Móstoles-Navalcarnero","Paseo de Extremadura 13",40.349910000000000,-3.831500000000000,,"http://www.crtm.es",2,"est_4_211",,0
"acc_4_211_507","211","Avda. Móstoles-Bailén","Paseo de Extremadura 17",40.349540000000000,-3.831980000000000,,"http://www.crtm.es",2,"est_4_211",,0
"acc_4_211_508","211","Ascensor exterior","Avda de Móstoles 12",40.349930000000000,-3.831920000000000,,"http://www.crtm.es",2,"est_4_211",,0
"acc_4_211_509","211","Avda. Móstoles","Avda de Móstoles 12",40.350020000000000,-3.831920000000000,,"http://www.crtm.es",2,"est_4_211",,0
"acc_4_211_582","211","C/ Berlín Hospital","Calle de Berlín 2",40.349900000000000,-3.832500000000000,,"http://www.crtm.es",2,"est_4_211",,0
"acc_4_211_583","211","C/ Berlín por 2º vestíbulo renfe","Calle de Berlín 2",40.350550000000000,-3.831850000000000,,"http://www.crtm.es",2,"est_4_211",,0
"acc_4_211_584","211","Ascensor exterior RENFE","Calle de Berlín 2",40.350200000000000,-3.832270000000000,,"http://www.crtm.es",2,"est_4_211",,0
"acc_4_212_510","212","Estambul","Calle de Estambul 16",40.346160000000000,-3.849290000000000,,"http://www.crtm.es",2,"est_4_212",,0
"acc_4_212_511","212","Ascensor","Calle de Estambul 16",40.346030000000000,-3.849250000000000,,"http://www.crtm.es",2,"est_4_212",,0
"acc_4_213_512","213","Avda. Alcalde de Móstoles","Avda del Alcalde de Móstoles 35",40.334760000000000,-3.872170000000000,,"http://www.crtm.es",2,"est_4_213",,0
"acc_4_213_513","213","Ascensor","Avda del Alcalde de Móstoles 35",40.334800000000000,-3.872130000000000,,"http://www.crtm.es",2,"est_4_213",,0
"acc_4_213_576","213","Avda. Alcalde de Móstoles","Avda del Alcalde de Móstoles 35",40.334750000000000,-3.872150000000000,,"http://www.crtm.es",2,"est_4_213",,0
"acc_4_214_514","214","Paseo de la Estación","Paseo de la Estación 13",40.328540000000000,-3.863490000000000,,"http://www.crtm.es",2,"est_4_214",,0
"acc_4_214_515","214","Ascensor exterior RENFE 1","Paseo de la Estación 13",40.328660000000000,-3.863400000000000,,"http://www.crtm.es",2,"est_4_214",,0
"acc_4_214_586","214","Goya","Calle  Parque Vosa 35",40.328970000000000,-3.863850000000000,,"http://www.crtm.es",2,"est_4_214",,0
"acc_4_214_587","214","Ascensor exterior RENFE 2","Calle  Parque Vosa 35",40.328910000000000,-3.863680000000000,,"http://www.crtm.es",2,"est_4_214",,0
"acc_4_215_516","215","Pza. de Pradillo","Plaza del Pradillo SN",40.321500000000000,-3.864580000000000,,"http://www.crtm.es",2,"est_4_215",,0
"acc_4_215_517","215","Ascensor","Plaza del Pradillo SN",40.321630000000000,-3.864700000000000,,"http://www.crtm.es",2,"est_4_215",,0
"acc_4_216_518","216","Río Ebro - Río Sella","Calle del Río Sella 10",40.316360000000000,-3.874640000000000,,"http://www.crtm.es",2,"est_4_216",,0
"acc_4_216_519","216","Ascensor","Calle del Río Sella 10",40.316450000000000,-3.874560000000000,,"http://www.crtm.es",2,"est_4_216",,0
"acc_4_217_520","217","Manuela Malasaña","Cmno de la Magdalena SN",40.309130000000000,-3.864870000000000,,"http://www.crtm.es",2,"est_4_217",,0
"acc_4_217_521","217","Ascensor","Cmno de la Magdalena SN",40.309140000000000,-3.864710000000000,,"http://www.crtm.es",2,"est_4_217",,0
"acc_4_218_522","218","Avda. de Pablo Iglesias","Avda de Pablo Iglesias 1",40.296400000000000,-3.837580000000000,,"http://www.crtm.es",2,"est_4_218",,0
"acc_4_218_523","218","Pza. de la Concordia","Calle de la Alegría 4",40.297100000000000,-3.837590000000000,,"http://www.crtm.es",2,"est_4_218",,0
"acc_4_218_524","218","Ascensor","Calle de la Alegría 4",40.296880000000000,-3.837530000000000,,"http://www.crtm.es",2,"est_4_218",,0
"acc_4_219_525","219","Cº del Molino - Hospital","Cmno del Molino 2",40.285770000000000,-3.816560000000000,,"http://www.crtm.es",2,"est_4_219",,0
"acc_4_219_526","219","Cº del Molino - Universidad","Cmno del Molino SN",40.285190000000000,-3.817280000000000,,"http://www.crtm.es",2,"est_4_219",,0
"acc_4_219_527","219","Ascensor","Cmno del Molino 2",40.285740000000000,-3.816680000000000,,"http://www.crtm.es",2,"est_4_219",,0
"acc_4_22_74","22","Pío Felipe","Avda de la Albufera 179",40.391720000000000,-3.654010000000000,,"http://www.crtm.es",2,"est_4_22",,0
"acc_4_22_75","22","Buenos Aires","Avda de la Albufera 140",40.391400000000000,-3.653940000000000,,"http://www.crtm.es",2,"est_4_22",,0
"acc_4_220_528","220","Francia","Calle de Francia 34",40.285170000000000,-3.805960000000000,,"http://www.crtm.es",2,"est_4_220",,0
"acc_4_220_529","220","Ascensor","Calle de Francia 36",40.285290000000000,-3.806440000000000,,"http://www.crtm.es",2,"est_4_220",,0
"acc_4_221_530","221","Pº de la Estación","Paseo de la Estación SN",40.282670000000000,-3.798850000000000,,"http://www.crtm.es",2,"est_4_221",,0
"acc_4_221_531","221","Ascensor no acceso independiente","Calle de la Estación SN",40.282600000000000,-3.798880000000000,,"http://www.crtm.es",2,"est_4_221",,0
"acc_4_221_589","221","Paseo de Roma","Plaza  Constitución SN",40.283130000000000,-3.799670000000000,,"http://www.crtm.es",2,"est_4_221",,0
"acc_4_221_590","221","Ascensor exterior RENFE","Plaza  Constitución SN",40.282670000000000,-3.799850000000000,,"http://www.crtm.es",2,"est_4_221",,0
"acc_4_222_532","222","Avda. de los Estados","Avda de los Estados 10",40.286550000000000,-3.787390000000000,,"http://www.crtm.es",2,"est_4_222",,0
"acc_4_222_533","222","La Habana","Calle de la Habana 2",40.287000000000000,-3.787000000000000,,"http://www.crtm.es",2,"est_4_222",,0
"acc_4_222_534","222","Ascensor","Calle de Venezuela 2",40.286600000000000,-3.787000000000000,,"http://www.crtm.es",2,"est_4_222",,0
"acc_4_223_535","223","Las Ciencias","Calle de las Ciencias 14",40.289010000000000,-3.756840000000000,,"http://www.crtm.es",2,"est_4_223",,0
"acc_4_223_536","223","Ascensor","Calle de las Ciencias 14",40.288560000000000,-3.756750000000000,,"http://www.crtm.es",2,"est_4_223",,0
"acc_4_224_537","224","Senda de Mafalda","Avda de las Arcas del agua 9",40.293450000000000,-3.746210000000000,,"http://www.crtm.es",2,"est_4_224",,0
"acc_4_224_538","224","Ascensor","Avda de las Arcas del agua 9",40.293360000000000,-3.745840000000000,,"http://www.crtm.es",2,"est_4_224",,0
"acc_4_225_539","225","Ferrocarril - El Greco","Calle del Greco 2",40.300770000000000,-3.736280000000000,,"http://www.crtm.es",2,"est_4_225",,0
"acc_4_225_540","225","Ascensor","Calle del Greco 8",40.300880000000000,-3.736790000000000,,"http://www.crtm.es",2,"est_4_225",,0
"acc_4_226_543","226","Paseo del Ferrocarril","Calle del Muelle 1",40.310000000000000,-3.734180000000000,,"http://www.crtm.es",2,"est_4_226",,0
"acc_4_226_544","226","Ramon y Cajal","Calle  Ferrocarril SN",40.309970000000000,-3.733860000000000,,"http://www.crtm.es",2,"est_4_226",,0
"acc_4_226_545","226","Ascensor exterior RENFE 1","Calle  Ferrocarril SN",40.309890000000000,-3.733940000000000,,"http://www.crtm.es",2,"est_4_226",,0
"acc_4_227_546","227","Avda. de España pares","Avda de España 16",40.311650000000000,-3.722400000000000,,"http://www.crtm.es",2,"est_4_227",,0
"acc_4_227_547","227","Avda. de España impares","Avda de España 5",40.311790000000000,-3.722640000000000,,"http://www.crtm.es",2,"est_4_227",,0
"acc_4_227_548","227","Ascensor","Avda de España 9",40.312090000000000,-3.722380000000000,,"http://www.crtm.es",2,"est_4_227",,0
"acc_4_228_1084","228","C. Gitanilla","Calle de la Gitanilla SN",40.318180000000000,-3.709250000000000,,"http://www.crtm.es",2,"est_4_228",,0
"acc_4_228_1085","228","Ascensor","Calle de la Gitanilla SN",40.318190000000000,-3.709260000000000,,"http://www.crtm.es",2,"est_4_228",,0
"acc_4_228_549","228","Avda. del Casar","Avda del Casar SN",40.318700000000000,-3.710010000000000,,"http://www.crtm.es",2,"est_4_228",,0
"acc_4_228_550","228","Ascensor","Avda del Casar SN",40.318410000000000,-3.710050000000000,,"http://www.crtm.es",2,"est_4_228",,0
"acc_4_229_551","229","Avda. de Rigoberta Menchú","Avda  Rigoberta Menchú 3",40.324330000000000,-3.718380000000000,,"http://www.crtm.es",2,"est_4_229",,0
"acc_4_229_552","229","Ascensor","Avda de Rigoberta Menchú 3",40.324160000000000,-3.718010000000000,,"http://www.crtm.es",2,"est_4_229",,0
"acc_4_23_76","23","Albufera impares","Calle de Santillana del Mar 19",40.390150000000000,-3.645270000000000,,"http://www.crtm.es",2,"est_4_23",,0
"acc_4_23_77","23","Albufera pares","Avda de la Albufera 248",40.389690000000000,-3.645620000000000,,"http://www.crtm.es",2,"est_4_23",,0
"acc_4_23_78","23","Ascensor","Calle de la Albufera 246",40.389890000000000,-3.645450000000000,,"http://www.crtm.es",2,"est_4_23",,0
"acc_4_230_553","230","El Bercial","Avda  Comandante José Manuel Ripollés 4",40.329460000000000,-3.729970000000000,,"http://www.crtm.es",2,"est_4_230",,0
"acc_4_231_555","231","Avda. Rey Juan Carlos I pares","Avda  Rey Juan Carlos I 108",40.336440000000000,-3.739990000000000,,"http://www.crtm.es",2,"est_4_231",,0
"acc_4_231_556","231","Avda. Rey Juan Carlos I impares","Avda  Rey Juan Carlos I 85",40.336860000000000,-3.740260000000000,,"http://www.crtm.es",2,"est_4_231",,0
"acc_4_231_557","231","Ascensor","Avda  Rey Juan Carlos I SN",40.336560000000000,-3.740490000000000,,"http://www.crtm.es",2,"est_4_231",,0
"acc_4_232_558","232","Avda. Rey Juan Carlos I pares","Avda  Rey Juan Carlos I 32",40.334460000000000,-3.752350000000000,,"http://www.crtm.es",2,"est_4_232",,0
"acc_4_232_559","232","Avda. Rey Juan Carlos I impares","Avda  Rey Juan Carlos I 25",40.334790000000000,-3.752350000000000,,"http://www.crtm.es",2,"est_4_232",,0
"acc_4_232_560","232","Ascensor","Avda  Rey Juan Carlos I 25",40.334650000000000,-3.752470000000000,,"http://www.crtm.es",2,"est_4_232",,0
"acc_4_233_561","233","Casa del Reloj","Avda  Gibraltar 2",40.326740000000000,-3.759330000000000,,"http://www.crtm.es",2,"est_4_233",,0
"acc_4_233_562","233","Avda. de Gibraltar impares","Avda  Gibraltar 13",40.326860000000000,-3.759550000000000,,"http://www.crtm.es",2,"est_4_233",,0
"acc_4_233_563","233","Ascensor","Avda de Gibraltar 2",40.326500000000000,-3.759560000000000,,"http://www.crtm.es",2,"est_4_233",,0
"acc_4_234_564","234","Avda. de Orellana","Avda  Orellana 3",40.322130000000000,-3.768520000000000,,"http://www.crtm.es",2,"est_4_234",,0
"acc_4_234_565","234","Hospital Severo Ochoa","Avda  Orellana 3",40.321420000000000,-3.768670000000000,,"http://www.crtm.es",2,"est_4_234",,0
"acc_4_234_566","234","Ascensor","Avda  Orellana 3",40.321830000000000,-3.768650000000000,,"http://www.crtm.es",2,"est_4_234",,0
"acc_4_235_567","235","Avda. del Cobre","Calle del Cobre SN",40.329060000000000,-3.771690000000000,,"http://www.crtm.es",2,"est_4_235",,0
"acc_4_235_568","235","Ascensor","Calle  Virgen del Camino 3",40.328600000000000,-3.771130000000000,,"http://www.crtm.es",2,"est_4_235",,0
"acc_4_235_592","235","Virgen del Camino","Calle  Virgen del Camino 1",40.328700000000000,-3.771040000000000,,"http://www.crtm.es",2,"est_4_235",,0
"acc_4_235_593","235","Ascensor exterior RENFE","Calle  Virgen del Camino 5",40.328570000000000,-3.771180000000000,,"http://www.crtm.es",2,"est_4_235",,0
"acc_4_236_569","236","Avda. del Mar Mediterráneo","Avda del Mar Mediterráneo SN",40.335900000000000,-3.776040000000000,,"http://www.crtm.es",2,"est_4_236",,0
"acc_4_236_570","236","La Encina","Calle de la Encina SN",40.336460000000000,-3.775730000000000,,"http://www.crtm.es",2,"est_4_236",,0
"acc_4_236_571","236","Ascensor","Avda del Mar Mediterráneo SN",40.336330000000000,-3.776100000000000,,"http://www.crtm.es",2,"est_4_236",,0
"acc_4_24_79","24","Rafael Alberti - Ambulatorio","Avda de la Albufera 285",40.387570000000000,-3.639980000000000,,"http://www.crtm.es",2,"est_4_24",,0
"acc_4_24_80","24","Albufera pares","Avda de la Albufera 280",40.386860000000000,-3.639590000000000,,"http://www.crtm.es",2,"est_4_24",,0
"acc_4_24_81","24","Aparcamiento","Avda de la Albufera 278",40.387060000000000,-3.639800000000000,,"http://www.crtm.es",2,"est_4_24",,0
"acc_4_24_82","24","Ascensor","Avda de la Albufera 285",40.387370000000000,-3.639710000000000,,"http://www.crtm.es",2,"est_4_24",,0
"acc_4_25_577","25","Acceso Glorieta RENFE","Calle de Jesús del Pino 32",40.381960000000000,-3.624530000000000,,"http://www.crtm.es",2,"est_4_25",,0
"acc_4_25_83","25","Avenida de la Democracia","Avda de la Democracia 1",40.382240000000000,-3.624980000000000,,"http://www.crtm.es",2,"est_4_25",,0
"acc_4_25_84","25","Correspondencia RENFE","Calle de Sierra de Guadalupe 23",40.382080000000000,-3.624670000000000,,"http://www.crtm.es",2,"est_4_25",,0
"acc_4_25_85","25","Ascensor exterior RENFE","Avda de la Democracia 1",40.382080000000000,-3.624730000000000,,"http://www.crtm.es",2,"est_4_25",,0
"acc_4_25_86","25","Avda. de la Democracia - Arboleda","Avda de la Democracia 4",40.383100000000000,-3.625080000000000,,"http://www.crtm.es",2,"est_4_25",,0
"acc_4_252_623","252","Corbeta","Calle de la Corbeta 12",40.457390000000000,-3.588100000000000,,"http://www.crtm.es",2,"est_4_252",,0
"acc_4_252_624","252","Ascensor","Calle de la Corbeta 14",40.457530000000000,-3.587750000000000,,"http://www.crtm.es",2,"est_4_252",,0
"acc_4_253_625","253","Velero","Calle de Velero 15",40.452940000000000,-3.594940000000000,,"http://www.crtm.es",2,"est_4_253",,0
"acc_4_253_626","253","Ascensor","Calle de Velero 17",40.453310000000000,-3.594380000000000,,"http://www.crtm.es",2,"est_4_253",,0
"acc_4_253_627","253","Pinos de Osuna","Calle de Pinos de Osuna 15",40.453610000000000,-3.593540000000000,,"http://www.crtm.es",2,"est_4_253",,0
"acc_4_254_628","254","Avda. Los Poblados impares","Avda de los Poblados 91",40.373850000000000,-3.740050000000000,,"http://www.crtm.es",2,"est_4_254",,0
"acc_4_254_629","254","Avda. Los Poblados pares","Avda de los Poblados 96",40.373460000000000,-3.739910000000000,,"http://www.crtm.es",2,"est_4_254",,0
"acc_4_254_630","254","Ascensor","Avda de los Poblados 96",40.373450000000000,-3.739990000000000,,"http://www.crtm.es",2,"est_4_254",,0
"acc_4_255_631","255","Avda. Carabanchel Alto","Avda de Carabanchel Alto 15",40.371990000000000,-3.751800000000000,,"http://www.crtm.es",2,"est_4_255",,0
"acc_4_255_632","255","Ascensor","Cllon de Rosa 15",40.371800000000000,-3.751710000000000,,"http://www.crtm.es",2,"est_4_255",,0
"acc_4_256_633","256","Avda. La Peseta","Avda de la Peseta 61",40.364230000000000,-3.757030000000000,,"http://www.crtm.es",2,"est_4_256",,0
"acc_4_256_634","256","Ascensor","Avda de la Peseta 61",40.364150000000000,-3.757070000000000,,"http://www.crtm.es",2,"est_4_256",,0
"acc_4_257_635","257","Fuente de Lima","Calle de la Fuente de Lima 2",40.383820000000000,-3.783910000000000,,"http://www.crtm.es",2,"est_4_257",,0
"acc_4_257_636","257","Ascensor","Calle de la Fuente de Lima 2",40.383800000000000,-3.783960000000000,,"http://www.crtm.es",2,"est_4_257",,0
"acc_4_258_637","258","Gran Vía de Hortaleza","G.v. de Hortaleza 49 A",40.468150000000000,-3.648310000000000,,"http://www.crtm.es",2,"est_4_258",,0
"acc_4_258_638","258","Ascensor","Avda de la Gran Vía de Hortaleza SN",40.468010000000000,-3.648150000000000,,"http://www.crtm.es",2,"est_4_258",,0
"acc_4_259_639","259","Bronce","Calle del Bronce 1 A",40.393040000000000,-3.688500000000000,,"http://www.crtm.es",2,"est_4_259",,0
"acc_4_26_87","26","Pº Federico García Lorca","Paseo de Federico García Lorca 3",40.379330000000000,-3.621050000000000,,"http://www.crtm.es",2,"est_4_26",,0
"acc_4_26_88","26","Sierra Vieja","Plaza  Sierra de gador 10",40.379780000000000,-3.621870000000000,,"http://www.crtm.es",2,"est_4_26",,0
"acc_4_26_89","26","Ascensor","Paseo de Federico García Lorca 1 B",40.379490000000000,-3.621030000000000,,"http://www.crtm.es",2,"est_4_26",,0
"acc_4_260_640","260","Avda. Marqués de Corbera","Avda del Marqués de Corbera 56",40.426470000000000,-3.650710000000000,,"http://www.crtm.es",2,"est_4_260",,0
"acc_4_260_641","260","Ascensor","Avda del Marqués de Corbera 58",40.426510000000000,-3.650420000000000,,"http://www.crtm.es",2,"est_4_260",,0
"acc_4_261_474","261","Chamartín","Calle del Padre Francisco Palau y Quer SN",40.473140000000000,-3.683080000000000,,"http://www.crtm.es",2,"est_90_25",,0
"acc_4_261_642","261","Ascensor","Calle del Padre Francisco Palau y Quer SN",40.473230000000000,-3.683130000000000,,"http://www.crtm.es",2,"est_90_25",,0
"acc_4_262_643","262","Bambú","Calle del Bambú 14",40.476830000000000,-3.676420000000000,,"http://www.crtm.es",2,"est_4_262",,0
"acc_4_262_644","262","Ascensor","Calle del Bambú 14",40.477050000000000,-3.676840000000000,,"http://www.crtm.es",2,"est_4_262",,0
"acc_4_263_645","263","Arturo Soria","Calle de Arturo Soria 330",40.480200000000000,-3.666820000000000,,"http://www.crtm.es",2,"est_4_263",,0
"acc_4_263_646","263","Ascensor","Calle de Arturo Soria 330",40.480150000000000,-3.666930000000000,,"http://www.crtm.es",2,"est_4_263",,0
"acc_4_264_647","264","Capitán Cortés","Calle del Capitán Cortés 2",40.474880000000000,-3.652340000000000,,"http://www.crtm.es",2,"est_4_264",,0
"acc_4_264_648","264","Costa del Sol","Calle de la Costa del sol 20 D",40.474200000000000,-3.652040000000000,,"http://www.crtm.es",2,"est_4_264",,0
"acc_4_265_649","265","Vélez Rubio","Calle de Vélez Rubio 1 D",40.476840000000000,-3.662850000000000,,"http://www.crtm.es",2,"est_4_265",,0
"acc_4_265_650","265","Ascensor","Calle de Vélez Rubio 1 D",40.476840000000000,-3.662850000000000,,"http://www.crtm.es",2,"est_4_265",,0
"acc_4_267_651","267","Avda. Córdoba impares","Avda de Córdoba 21",40.384200000000000,-3.697880000000000,,"http://www.crtm.es",2,"est_4_267",,0
"acc_4_267_652","267","Avda. Córdoba pares","Avda de Córdoba SN",40.383850000000000,-3.698300000000000,,"http://www.crtm.es",2,"est_4_267",,0
"acc_4_267_653","267","Ascensor","Avda de Córdoba SN",40.383890000000000,-3.698370000000000,,"http://www.crtm.es",2,"est_4_267",,0
"acc_4_268_654","268","Glorieta de Málaga","Avda de Córdoba SN",40.375490000000000,-3.695880000000000,,"http://www.crtm.es",2,"est_4_268",,0
"acc_4_268_655","268","Ascensor","Avda de Córdoba SN",40.375210000000000,-3.695750000000000,,"http://www.crtm.es",2,"est_4_268",,0
"acc_4_269_656","269","Avda. Perla","Avda de la Perla 35",40.369920000000000,-3.694160000000000,,"http://www.crtm.es",2,"est_4_269",,0
"acc_4_269_657","269","Avda. Andalucia pares","Avda de Andalucía 20",40.369880000000000,-3.694620000000000,,"http://www.crtm.es",2,"est_4_269",,0
"acc_4_269_658","269","Ascensor","Avda de la Perla 37",40.369610000000000,-3.694100000000000,,"http://www.crtm.es",2,"est_4_269",,0
"acc_4_27_90","27","Congosto","Calle del Congosto 35",40.372000000000000,-3.618660000000000,,"http://www.crtm.es",2,"est_4_27",,0
"acc_4_27_91","27","Plaza de Congosto","Calle del Congosto 33",40.372330000000000,-3.618670000000000,,"http://www.crtm.es",2,"est_4_27",,0
"acc_4_27_92","27","Ascensor","Calle del Congosto 50",40.372130000000000,-3.618910000000000,,"http://www.crtm.es",2,"est_4_27",,0
"acc_4_270_659","270","Tertulia","Calle de la Tertulia 17",40.359540000000000,-3.692950000000000,,"http://www.crtm.es",2,"est_4_270",,0
"acc_4_270_660","270","Paseo Gigantes y Cabezudos","Paseo de Gigantes y Cabezudos 10",40.360050000000000,-3.693670000000000,,"http://www.crtm.es",2,"est_4_270",,0
"acc_4_270_661","270","Ascensor","Paseo de Gigantes y Cabezudos 12",40.359730000000000,-3.693660000000000,,"http://www.crtm.es",2,"est_4_270",,0
"acc_4_271_662","271","Santiago Amón","Calle de Santiago Amón 1",40.350570000000000,-3.693350000000000,,"http://www.crtm.es",2,"est_4_271",,0
"acc_4_271_663","271","Santa Petronila","Calle de Santa Petronila 3",40.351090000000000,-3.692560000000000,,"http://www.crtm.es",2,"est_4_271",,0
"acc_4_271_664","271","Ascensor","Calle de Santa Petronila 7",40.350810000000000,-3.692560000000000,,"http://www.crtm.es",2,"est_4_271",,0
"acc_4_272_665","272","Moncada","Calle de Moncada 102",40.341120000000000,-3.692490000000000,,"http://www.crtm.es",2,"est_4_272",,0
"acc_4_272_666","272","Avda. Andalucía pares","Avda de Andalucía SN",40.341670000000000,-3.693120000000000,,"http://www.crtm.es",2,"est_4_272",,0
"acc_4_272_667","272","Ascensor","Calle de Moncada 101",40.341450000000000,-3.692480000000000,,"http://www.crtm.es",2,"est_4_272",,0
"acc_4_273_668","273","Valle de Tobalina","Calle del Valle de Tobalina 54",40.341000000000000,-3.712710000000000,,"http://www.crtm.es",2,"est_4_273",,0
"acc_4_273_670","273","Ascensor","Calle del Valle de Tobalina 54",40.341040000000000,-3.712780000000000,,"http://www.crtm.es",2,"est_4_273",,0
"acc_4_274_693","274","Retablo de Melisendra","Calle del Retablo de Melisendra SN",40.501080000000000,-3.694740000000000,,"http://www.crtm.es",2,"est_4_274",,0
"acc_4_275_691","275","Avda. Monasterio de Silos","Avda de Monasterio de Silos 63 A",40.505290000000000,-3.695820000000000,,"http://www.crtm.es",2,"est_4_275",,0
"acc_4_275_692","275","Ascensor","Avda de Monasterio de Silos 63 A",40.505280000000000,-3.695840000000000,,"http://www.crtm.es",2,"est_4_275",,0
"acc_4_276_689","276","Palas de Rey","Calle de Palas de Rey 30",40.508430000000000,-3.669360000000000,,"http://www.crtm.es",2,"est_4_276",,0
"acc_4_276_690","276","Ascensor","Calle de Palas de Rey 30",40.508440000000000,-3.669390000000000,,"http://www.crtm.es",2,"est_4_276",,0
"acc_4_277_687","277","Maestro Mateo","Ronda de la Comunicación 20",40.515710000000000,-3.662840000000000,,"http://www.crtm.es",2,"est_4_277",,0
"acc_4_277_688","277","Ascensor","Ronda de la Comunicación 20",40.515860000000000,-3.662890000000000,,"http://www.crtm.es",2,"est_4_277",,0
"acc_4_278_685","278","La Granja","Calle de Sepúlveda 1",40.527630000000000,-3.658650000000000,,"http://www.crtm.es",2,"est_4_278",,0
"acc_4_278_686","278","Ascensor","Calle de la Granja 14",40.527720000000000,-3.658550000000000,,"http://www.crtm.es",2,"est_4_278",,0
"acc_4_279_683","279","Avda. Bruselas","Avda de la Ermita 5",40.531870000000000,-3.635500000000000,,"http://www.crtm.es",2,"est_4_279",,0
"acc_4_279_684","279","Ascensor","Avda de la Ermita 5",40.531990000000000,-3.635480000000000,,"http://www.crtm.es",2,"est_4_279",,0
"acc_4_28_93","28","Plaza de Toros","Calle de Alcalá 237",40.431040000000000,-3.663290000000000,,"http://www.crtm.es",2,"est_4_28",,0
"acc_4_28_94","28","Plaza de Toros","Calle de Alcalá 237",40.431200000000000,-3.663380000000000,,"http://www.crtm.es",2,"est_4_28",,0
"acc_4_280_680","280","Marqués de la Valdavia","Calle del Marqués de la Valdavia 21",40.541120000000000,-3.637390000000000,,"http://www.crtm.es",2,"est_4_280",,0
"acc_4_280_681","280","Ascensor","Calle del Marqués de la Valdavia 21",40.541070000000000,-3.637550000000000,,"http://www.crtm.es",2,"est_4_280",,0
"acc_4_281_678","281","Manuel de Falla","Calle  Manuel de Falla 59",40.550440000000000,-3.647080000000000,,"http://www.crtm.es",2,"est_4_281",,0
"acc_4_281_679","281","Ascensor","Calle  Manuel de Falla 59",40.550630000000000,-3.646820000000000,,"http://www.crtm.es",2,"est_4_281",,0
"acc_4_282_676","282","Avda. Lomas del Rey","Avda de las Lomas del Rey 2",40.554390000000000,-3.635070000000000,,"http://www.crtm.es",2,"est_4_282",,0
"acc_4_282_677","282","Ascensor","Avda de las Lomas del Rey 8",40.554350000000000,-3.635400000000000,,"http://www.crtm.es",2,"est_4_282",,0
"acc_4_283_674","283","Avda. Plaza de Toros","Avda de la Plaza de Toros 7",40.550280000000000,-3.623360000000000,,"http://www.crtm.es",2,"est_4_283",,0
"acc_4_283_675","283","Ascensor","Avda de la Plaza de Toros 7",40.550390000000000,-3.623270000000000,,"http://www.crtm.es",2,"est_4_283",,0
"acc_4_284_671","284","Poeta Rafael Morales","Paseo  Europa SN",40.560200000000000,-3.611430000000000,,"http://www.crtm.es",2,"est_4_284",,0
"acc_4_284_672","284","Hospital Infanta Sofía","Paseo  Europa SN",40.559760000000000,-3.610660000000000,,"http://www.crtm.es",2,"est_4_284",,0
"acc_4_284_673","284","Ascensor","Paseo  Europa SN",40.559700000000000,-3.610770000000000,,"http://www.crtm.es",2,"est_4_284",,0
"acc_4_285_694","285","Terminal T4","Ctra de Alcobendas a Barajas SN",40.492180000000000,-3.593160000000000,,"http://www.crtm.es",2,"est_90_33",,0
"acc_4_286_710","286","Estadio Metropolitano","Avda de Arcentales SN",40.433840000000000,-3.601020000000000,,"http://www.crtm.es",2,"est_4_286",,0
"acc_4_286_711","286","Estocolmo","Calle de Estocolmo 91",40.432980000000000,-3.601650000000000,,"http://www.crtm.es",2,"est_4_286",,0
"acc_4_286_712","286","Ascensor","Calle de Estocolmo 91",40.432910000000000,-3.601520000000000,,"http://www.crtm.es",2,"est_4_286",,0
"acc_4_287_708","287","Avda. España","Avda de España 8",40.422700000000000,-3.568820000000000,,"http://www.crtm.es",2,"est_4_287",,0
"acc_4_287_709","287","Ascensor","Avda de España 8",40.422730000000000,-3.568950000000000,,"http://www.crtm.es",2,"est_4_287",,0
"acc_4_288_703","288","Doctor Fleming","Calle del Doctor Fleming SN",40.423850000000000,-3.561970000000000,,"http://www.crtm.es",2,"est_4_288",,0
"acc_4_288_704","288","Correspondencia RENFE","Calle de Luis Braille SN",40.423820000000000,-3.561170000000000,,"http://www.crtm.es",2,"est_4_288",,0
"acc_4_288_706","288","Ascensor RENFE","Calle de Luis Braille SN",40.423730000000000,-3.560830000000000,,"http://www.crtm.es",2,"est_4_288",,0
"acc_4_288_707","288","Ascensor","Calle del Doctor Fleming SN",40.423550000000000,-3.562000000000000,,"http://www.crtm.es",2,"est_4_288",,0
"acc_4_289_701","289","Honduras","Calle  Honduras SN",40.425120000000000,-3.547820000000000,,"http://www.crtm.es",2,"est_4_289",,0
"acc_4_289_702","289","Ascensor","Calle  Honduras SN",40.425190000000000,-3.547980000000000,,"http://www.crtm.es",2,"est_4_289",,0
"acc_4_29_95","29","D. Ramón de la Cruz","Plaza de Manuel Becerra 4",40.428200000000000,-3.669510000000000,,"http://www.crtm.es",2,"est_4_29",,0
"acc_4_29_96","29","Doctor Esquerdo","Plaza de Manuel Becerra 20",40.427620000000000,-3.669270000000000,,"http://www.crtm.es",2,"est_4_29",,0
"acc_4_290_699","290","Gonzalo de Córdoba","Calle de Gonzalo de Córdoba 24",40.424420000000000,-3.535350000000000,,"http://www.crtm.es",2,"est_4_290",,0
"acc_4_290_700","290","Ascensor","Calle de Gonzalo de Córdoba 26",40.424470000000000,-3.535870000000000,,"http://www.crtm.es",2,"est_4_290",,0
"acc_4_291_697","291","Plaza de Guernica","Plaza  Guernica 1",40.422860000000000,-3.525430000000000,,"http://www.crtm.es",2,"est_4_291",,0
"acc_4_291_698","291","Ascensor","Plaza  Guernica 1",40.422990000000000,-3.525440000000000,,"http://www.crtm.es",2,"est_4_291",,0
"acc_4_292_695","292","Algorta","Avda de Algorta 12",40.417790000000000,-3.527090000000000,,"http://www.crtm.es",2,"est_4_292",,0
"acc_4_292_696","292","Ascensor","Avda de Algorta 12",40.417730000000000,-3.527250000000000,,"http://www.crtm.es",2,"est_4_292",,0
"acc_4_293_713","293","Avda. Ensanche de Vallecas","Avda del Ensanche de Vallecas 16",40.370290000000000,-3.613460000000000,,"http://www.crtm.es",2,"est_4_293",,0
"acc_4_293_714","293","Ascensor","Avda del Ensanche de Vallecas 16",40.370250000000000,-3.613370000000000,,"http://www.crtm.es",2,"est_4_293",,0
"acc_4_294_715","294","Cañada del Santísimo","Calle de Cañada del Santísimo 45",40.363170000000000,-3.599580000000000,,"http://www.crtm.es",2,"est_4_294",,0
"acc_4_294_716","294","Ascensor","Calle de Cañada del Santísimo 45",40.363250000000000,-3.599480000000000,,"http://www.crtm.es",2,"est_4_294",,0
"acc_4_295_717","295","Avda. Ensanche de Vallecas","Avda del Ensanche de Vallecas 120 A",40.360040000000000,-3.593190000000000,,"http://www.crtm.es",2,"est_4_295",,0
"acc_4_295_718","295","Ascensor","Avda del Ensanche de Vallecas 120 A",40.360090000000000,-3.593120000000000,,"http://www.crtm.es",2,"est_4_295",,0
"acc_4_296_761","296","Hospital del Henares","Camino  Labor SN",40.417560000000000,-3.534420000000000,,"http://www.crtm.es",2,"est_4_296",,0
"acc_4_296_762","296","Ascensor exterior","Camino  Labor SN",40.417840000000000,-3.534950000000000,,"http://www.crtm.es",2,"est_4_296",,0
"acc_4_3_7","3","Algodonales","Calle de Bravo Murillo 269",40.459820000000000,-3.699290000000000,,"http://www.crtm.es",2,"est_4_3",,0
"acc_4_3_8","3","General Margallo","Calle del General Margallo 2",40.461150000000000,-3.697880000000000,,"http://www.crtm.es",2,"est_4_3",,0
"acc_4_30_100","30","Felipe II impares","Avda de Felipe II 1",40.424210000000000,-3.676100000000000,,"http://www.crtm.es",2,"est_4_30",,0
"acc_4_30_101","30","General Díaz Porlier","Calle de Goya 62",40.424780000000000,-3.677580000000000,,"http://www.crtm.es",2,"est_4_30",,0
"acc_4_30_778","30","Ascensor ext nº4 a A2 L4","Calle de Goya 87",40.424940000000000,-3.676620000000000,,"http://www.crtm.es",2,"est_4_30",,0
"acc_4_30_779","30","Ascensor ext nº5 a A2 L4","Calle de Goya 87",40.424950000000000,-3.676660000000000,,"http://www.crtm.es",2,"est_4_30",,0
"acc_4_30_780","30","Ascensor ext nº2 a A1 L2","Avda de Felipe II 1",40.424230000000000,-3.676190000000000,,"http://www.crtm.es",2,"est_4_30",,0
"acc_4_30_781","30","Ascensor ext nº3 a A1 L2","Avda de Felipe II 1",40.424220000000000,-3.676150000000000,,"http://www.crtm.es",2,"est_4_30",,0
"acc_4_30_782","30","Ascensor exterior","Calle del General Díaz Porlier 3",40.424410000000000,-3.677340000000000,,"http://www.crtm.es",2,"est_4_30",,0
"acc_4_30_97","30","Conde de Peñalver pares","Calle del Conde del Peñalver 2",40.424990000000000,-3.675560000000000,,"http://www.crtm.es",2,"est_4_30",,0
"acc_4_30_98","30","Conde de Peñalver impares","Calle de Goya 89",40.425080000000000,-3.675810000000000,,"http://www.crtm.es",2,"est_4_30",,0
"acc_4_30_99","30","Felipe II pares","Avda de Felipe II 12",40.423900000000000,-3.676140000000000,,"http://www.crtm.es",2,"est_4_30",,0
"acc_4_300_815","300","Concepción Arenal","Calle  Concepción Arenal 1",40.341260000000000,-3.524890000000000,,"http://www.crtm.es",2,"est_4_300",,0
"acc_4_300_816","300","Marie Curie","Calle  Marie Curie 5",40.340210000000000,-3.526170000000000,,"http://www.crtm.es",2,"est_4_300",,0
"acc_4_300_817","300","Ascensor exterior","Calle  Marie Curie 5",40.340040000000000,-3.526010000000000,,"http://www.crtm.es",2,"est_4_300",,0
"acc_4_305_1045","305","San José","Calle  San José 40",40.357890000000000,-3.777830000000000,,"http://www.crtm.es",2,"est_4_305",,0
"acc_4_305_1046","305","Ascensor Exterior","Calle  San José 44",40.357710000000000,-3.777450000000000,,"http://www.crtm.es",2,"est_4_305",,0
"acc_4_31_103","31","Alcalá","Calle de Alcalá 125",40.423080000000000,-3.679760000000000,,"http://www.crtm.es",2,"est_4_31",,0
"acc_4_32_104","32","Lagasca","Calle de Lagasca 4",40.420820000000000,-3.685820000000000,,"http://www.crtm.es",2,"est_4_32",,0
"acc_4_32_105","32","Rampa","Calle de Lagasca 4",40.420960000000000,-3.685810000000000,,"http://www.crtm.es",2,"est_4_32",,0
"acc_4_32_106","32","Retiro","Calle de Alcalá 60",40.420050000000000,-3.686120000000000,,"http://www.crtm.es",2,"est_4_32",,0
"acc_4_32_107","32","Claudio Coello","Calle de Alcalá 75",40.420440000000000,-3.687100000000000,,"http://www.crtm.es",2,"est_4_32",,0
"acc_4_322_1058","322","Arriaga","Calle de Arriaga 75",40.423740000000000,-3.639250000000000,,"http://www.crtm.es",2,"est_4_322",,0
"acc_4_322_1059","322","Ascensor Exterior","Calle de Francisco Largo Caballero 15",40.423580000000000,-3.639090000000000,,"http://www.crtm.es",2,"est_4_322",,0
"acc_4_323_1060","323","Acceso Intercambiador","Plaza de Alsacia S/N",40.417670000000000,-3.623010000000000,,"http://www.crtm.es",2,"est_4_323",,0
"acc_4_323_1061","323","Ascensor Exterior Nº1","Plaza de Alsacia S/N",40.418060000000000,-3.623260000000000,,"http://www.crtm.es",2,"est_4_323",,0
"acc_4_323_1062","323","Avenida de Guadalajara","Avda de Guadalajara 2",40.418640000000000,-3.623190000000000,,"http://www.crtm.es",2,"est_4_323",,0
"acc_4_323_1063","323","Ascensor Exterior Nº 2","Avda de Guadalajara 2",40.418610000000000,-3.623400000000000,,"http://www.crtm.es",2,"est_4_323",,0
"acc_4_324_1064","324","Dresde","Avda de Guadalajara 110",40.422330000000000,-3.611960000000000,,"http://www.crtm.es",2,"est_4_324",,0
"acc_4_324_1065","324","Ascensor Exterior","Avda de Guadalajara 110",40.422460000000000,-3.611620000000000,,"http://www.crtm.es",2,"est_4_324",,0
"acc_4_325_1066","325","Paseo de Ginebra","Calle de Suecia 44",40.423900000000000,-3.603660000000000,,"http://www.crtm.es",2,"est_4_325",,0
"acc_4_325_1067","325","Ascensor Exterior","Paseo de Ginebra 35",40.423760000000000,-3.603040000000000,,"http://www.crtm.es",2,"est_4_325",,0
"acc_4_326_1068","326","Mirasierra","Avda del Ventisquero de la Condesa 28",40.491030000000000,-3.716350000000000,,"http://www.crtm.es",2,"est_4_326",,0
"acc_4_326_1069","326","Ascensor Exterior","Avda del Ventisquero de la Condesa 28",40.491240000000000,-3.716870000000000,,"http://www.crtm.es",2,"est_4_326",,0
"acc_4_33_108","33","Palacio de Buenavista","Calle de Alcalá 51",40.419370000000000,-3.694190000000000,,"http://www.crtm.es",2,"est_4_33",,0
"acc_4_33_109","33","Banco de España","Calle de Alcalá 48",40.418950000000000,-3.694510000000000,,"http://www.crtm.es",2,"est_4_33",,0
"acc_4_33_110","33","Marqués de Cubas","Calle de Alcalá 46",40.418740000000000,-3.695630000000000,,"http://www.crtm.es",2,"est_4_33",,0
"acc_4_33_111","33","Barquillo","Calle de Alcalá 47",40.419070000000000,-3.695840000000000,,"http://www.crtm.es",2,"est_4_33",,0
"acc_4_34_112","34","Sevilla","Calle de Alcalá 16",40.417730000000000,-3.699480000000000,,"http://www.crtm.es",2,"est_4_34",,0
"acc_4_34_113","34","Virgen de los Peligros","Calle de Alcalá 21",40.417900000000000,-3.699630000000000,,"http://www.crtm.es",2,"est_4_34",,0
"acc_4_34_114","34","Iglesia de las Calatravas","Calle de Alcalá 23",40.418070000000000,-3.699110000000000,,"http://www.crtm.es",2,"est_4_34",,0
"acc_4_345_1075","345","Paco de Lucía","Calle de Monasterio de Las Huelgas 5",40.499630000000000,-3.709160000000000,,"http://www.crtm.es",2,"est_4_345",,0
"acc_4_345_1076","345","Ascensor Exterior","Calle de Monasterio de Las Huelgas 5",40.499620000000000,-3.709240000000000,,"http://www.crtm.es",2,"est_4_345",,0
"acc_4_36_1054","36","Arenal","Plaza de Isabel II 9",40.418060000000000,-3.709360000000000,,"http://www.crtm.es",2,"est_4_36",,0
"acc_4_36_1056","36","Campomanes","Plaza de Isabel II 5",40.418230000000000,-3.709350000000000,,"http://www.crtm.es",2,"est_4_36",,0
"acc_4_36_1057","36","Ascensor","Plaza de Isabel II 8",40.418110000000000,-3.709250000000000,,"http://www.crtm.es",2,"est_4_36",,0
"acc_4_37_116","37","Santo Domingo","Plaza de Santo Domingo 6",40.420440000000000,-3.708600000000000,,"http://www.crtm.es",2,"est_4_37",,0
"acc_4_37_117","37","Gran Vía","Calle  Gran Vía 51",40.421300000000000,-3.707780000000000,,"http://www.crtm.es",2,"est_4_37",,0
"acc_4_38_118","38","Ministerio de Justicia","Calle de San Bernardo 45",40.424200000000000,-3.707460000000000,,"http://www.crtm.es",2,"est_4_50",,0
"acc_4_38_119","38","Noviciado","Calle de San Bernardo 51",40.425500000000000,-3.707420000000000,,"http://www.crtm.es",2,"est_4_50",,0
"acc_4_39_120","39","Alberto Aguilera","Gta de Ruiz Jiménez 2",40.429880000000000,-3.706040000000000,,"http://www.crtm.es",2,"est_4_39",,0
"acc_4_39_121","39","Carranza","Gta de Ruiz Jiménez 5",40.429670000000000,-3.705300000000000,,"http://www.crtm.es",2,"est_4_39",,0
"acc_4_4_10","4","Juan de Olías","Calle de Bravo Murillo 170",40.453670000000000,-3.702830000000000,,"http://www.crtm.es",2,"est_4_4",,0
"acc_4_4_11","4","Manuel Luna","Calle de Bravo Murillo 194",40.455250000000000,-3.702480000000000,,"http://www.crtm.es",2,"est_4_4",,0
"acc_4_4_12","4","Fulgencio de Miguel","Calle de Bravo Murillo 205",40.455330000000000,-3.702740000000000,,"http://www.crtm.es",2,"est_4_4",,0
"acc_4_4_9","4","Navarra","Calle de Bravo Murillo 183",40.453630000000000,-3.703090000000000,,"http://www.crtm.es",2,"est_4_4",,0
"acc_4_40_122","40","Arapiles","Gta de Quevedo 2",40.433390000000000,-3.704720000000000,,"http://www.crtm.es",2,"est_4_40",,0
"acc_4_40_123","40","Fuencarral","Gta de Quevedo 1",40.433110000000000,-3.704340000000000,,"http://www.crtm.es",2,"est_4_40",,0
"acc_4_41_124","41","Bravo Murillo pares","Calle de Bravo Murillo 40",40.438320000000000,-3.704120000000000,,"http://www.crtm.es",2,"est_4_41",,0
"acc_4_41_125","41","Bravo Murillo impares","Calle de Bravo Murillo 47",40.438250000000000,-3.704340000000000,,"http://www.crtm.es",2,"est_4_41",,0
"acc_4_41_126","41","Ascensor","Calle de Bravo Murillo 47 A",40.438460000000000,-3.704410000000000,,"http://www.crtm.es",2,"est_4_41",,0
"acc_4_43_127","43","Plaza de Legazpi","Plaza de Legazpi 1",40.391590000000000,-3.694840000000000,,"http://www.crtm.es",2,"est_4_43",,0
"acc_4_43_128","43","Beata María Ana de Jesús","Paseo de las Delicias 130",40.393280000000000,-3.694930000000000,,"http://www.crtm.es",2,"est_4_43",,0
"acc_4_43_783","43","Plaza de Legazpi esquina Bolivar","Plaza de Legazpi 2",40.391390000000000,-3.694540000000000,,"http://www.crtm.es",2,"est_4_43",,0
"acc_4_43_784","43","Ascensor","Plaza de Legazpi 1",40.391470000000000,-3.694630000000000,,"http://www.crtm.es",2,"est_4_43",,0
"acc_4_44_129","44","Cáceres","Paseo de las Delicias 78",40.398610000000000,-3.694330000000000,,"http://www.crtm.es",2,"est_4_44",,0
"acc_4_44_130","44","Ciudad Real","Paseo de las Delicias 60",40.399780000000000,-3.694200000000000,,"http://www.crtm.es",2,"est_4_44",,0
"acc_4_44_785","44","Pº de las Delicias impares","Paseo de las Delicias 61 A",40.400240000000000,-3.693900000000000,,"http://www.crtm.es",2,"est_4_44",,0
"acc_4_44_786","44","Ascensor","Paseo de las Delicias 58",40.400020000000000,-3.694140000000000,,"http://www.crtm.es",2,"est_4_44",,0
"acc_4_45_131","45","Paseo de las Delicias","Calle de Palos de la Frontera 42 A",40.402930000000000,-3.693960000000000,,"http://www.crtm.es",2,"est_4_45",,0
"acc_4_45_787","45","Palos de la Frontera impares","Calle de Palos de la Frontera 29",40.403160000000000,-3.694400000000000,,"http://www.crtm.es",2,"est_4_45",,0
"acc_4_45_788","45","Ascensor","Calle de Palos de la Frontera 33",40.403140000000000,-3.694140000000000,,"http://www.crtm.es",2,"est_4_45",,0
"acc_4_46_136","46","Embajadores","Gta de Embajadores 5",40.404590000000000,-3.702510000000000,,"http://www.crtm.es",2,"est_4_46",,0
"acc_4_46_137","46","Ronda de Valencia","Gta de Embajadores 3",40.405080000000000,-3.701810000000000,,"http://www.crtm.es",2,"est_4_46",,0
"acc_4_46_789","46","Ascensor","Gta de Embajadores 7",40.404670000000000,-3.702900000000000,,"http://www.crtm.es",2,"est_4_46",,0
"acc_4_47_790","47","Ascensor","Calle de Argumosa 3",40.408400000000000,-3.700370000000000,,"http://www.crtm.es",2,"est_4_47",,0
"acc_4_47_791","47","Argumosa","Calle de Argumosa 1",40.408450000000000,-3.700740000000000,,"http://www.crtm.es",2,"est_4_47",,0
"acc_4_49_139","49","Centro Comercial","Calle del Carmen 28",40.419710000000000,-3.705490000000000,,"http://www.crtm.es",2,"est_4_49",,0
"acc_4_49_140","49","Plaza de Callao","Plaza del Callao 1",40.420020000000000,-3.705810000000000,,"http://www.crtm.es",2,"est_4_49",,0
"acc_4_49_141","49","Cine Avenida","Calle  Gran Vía 39",40.420140000000000,-3.705240000000000,,"http://www.crtm.es",2,"est_4_49",,0
"acc_4_49_142","49","Palacio de la Prensa","Calle  Gran Vía 46",40.420490000000000,-3.706070000000000,,"http://www.crtm.es",2,"est_4_49",,0
"acc_4_49_792","49","Jacometrezo","Calle de Jacometrezo 1",40.420090000000000,-3.706130000000000,,"http://www.crtm.es",2,"est_4_49",,0
"acc_4_49_793","49","Ascensor","Calle de Jacometrezo 1",40.420100000000000,-3.706140000000000,,"http://www.crtm.es",2,"est_4_49",,0
"acc_4_49_794","49","Ascensor","Plaza del Callao 1",40.420130000000000,-3.705800000000000,,"http://www.crtm.es",2,"est_4_49",,0
"acc_4_5_13","5","Bravo Murillo impares","Calle de Bravo Murillo 135",40.450260000000000,-3.703610000000000,,"http://www.crtm.es",2,"est_4_5",,0
"acc_4_5_14","5","Bravo Murillo pares","Calle de Bravo Murillo 136",40.450170000000000,-3.703370000000000,,"http://www.crtm.es",2,"est_4_5",,0
"acc_4_50_143","50","Leganitos","Plaza de Gran Vía 73",40.423190000000000,-3.710970000000000,,"http://www.crtm.es",2,"est_4_50",,0
"acc_4_50_144","50","Coliseum","Calle  Gran Vía 80",40.423310000000000,-3.710510000000000,,"http://www.crtm.es",2,"est_4_50",,0
"acc_4_50_145","50","Plaza de España","Plaza de España 18",40.424150000000000,-3.711960000000000,,"http://www.crtm.es",2,"est_4_50",,0
"acc_4_50_146","50","Reyes","Calle de los Reyes 1",40.423640000000000,-3.710670000000000,,"http://www.crtm.es",2,"est_4_50",,0
"acc_4_50_147","50","Princesa","Calle de la Princesa 2",40.423670000000000,-3.710940000000000,,"http://www.crtm.es",2,"est_4_50",,0
"acc_4_50_148","50","Ascensor","Plaza del Conde de Toreno 1",40.424350000000000,-3.709250000000000,,"http://www.crtm.es",2,"est_4_50",,0
"acc_4_50_149","50","Ascensor","Plaza del Conde de Toreno 1",40.424350000000000,-3.709240000000000,,"http://www.crtm.es",2,"est_4_50",,0
"acc_4_50_795","50","Ascensor","Plaza de España 18",40.424140000000000,-3.711820000000000,,"http://www.crtm.es",2,"est_4_50",,0
"acc_4_51_150","51","Princesa impares","Calle de la Princesa 23",40.426970000000000,-3.713750000000000,,"http://www.crtm.es",2,"est_4_51",,0
"acc_4_51_618","51","Princesa pares","Calle de la Princesa 22",40.427180000000000,-3.713580000000000,,"http://www.crtm.es",2,"est_4_51",,0
"acc_4_51_796","51","Ascensor","Calle de la Princesa 22",40.426960000000000,-3.713420000000000,,"http://www.crtm.es",2,"est_4_51",,0
"acc_4_52_151","52","Princesa","Calle de la Princesa 56",40.430270000000000,-3.715780000000000,,"http://www.crtm.es",2,"est_4_52",,0
"acc_4_52_152","52","Alberto Aguilera","Calle de Alberto Aguilera 70",40.430680000000000,-3.715590000000000,,"http://www.crtm.es",2,"est_4_52",,0
"acc_4_52_153","52","Altamirano","Calle de la Princesa 65",40.431380000000000,-3.716920000000000,,"http://www.crtm.es",2,"est_4_52",,0
"acc_4_52_154","52","Guzmán el Bueno","Calle de Alberto Aguilera 62",40.430560000000000,-3.714350000000000,,"http://www.crtm.es",2,"est_4_52",,0
"acc_4_52_797","52","Ascensor","Calle de Alberto Aguilera 70",40.430680000000000,-3.715560000000000,,"http://www.crtm.es",2,"est_4_52",,0
"acc_4_53_155","53","Acceso Intercambiador Ejercito del Aire","Paseo de Moret 1",40.434730000000000,-3.719610000000000,,"http://www.crtm.es",2,"est_90_14",,0
"acc_4_53_156","53","Princesa","Calle de la Princesa 96",40.434690000000000,-3.718970000000000,,"http://www.crtm.es",2,"est_90_14",,0
"acc_4_53_157","53","Ascensor exterior intercambiador","Calle de la Princesa 89",40.434700000000000,-3.719490000000000,,"http://www.crtm.es",2,"est_90_14",,0
"acc_4_53_579","53","Edificio de acceso intercambiador","Plaza de la Moncloa 1",40.435100000000000,-3.719240000000000,,"http://www.crtm.es",2,"est_90_14",,0
"acc_4_53_798","53","Arcipreste de Hita","Calle del Arcipreste de Hita 1",40.433640000000000,-3.717820000000000,,"http://www.crtm.es",2,"est_90_14",,0
"acc_4_53_807","53","Intercambiador E. del Aire","Calle de la Princesa 87",40.433810000000000,-3.718930000000000,,"http://www.crtm.es",2,"est_90_14",,0
"acc_4_57_160","57","Santa Bárbara","Plaza de Santa Bárbara 5",40.427440000000000,-3.695930000000000,,"http://www.crtm.es",2,"est_4_57",,0
"acc_4_57_161","57","Génova pares","Calle de Génova 2",40.427380000000000,-3.695440000000000,,"http://www.crtm.es",2,"est_4_57",,0
"acc_4_57_162","57","Santa Engracia","Plaza de Alonso Martínez 4",40.428030000000000,-3.695600000000000,,"http://www.crtm.es",2,"est_4_57",,0
"acc_4_57_163","57","Hermanos Álvarez Quintero","Calle de Sagasta 30",40.427840000000000,-3.697070000000000,,"http://www.crtm.es",2,"est_4_57",,0
"acc_4_58_164","58","Génova impares","Calle de Génova 29",40.425730000000000,-3.691670000000000,,"http://www.crtm.es",2,"est_4_58",,0
"acc_4_58_165","58","Génova pares","Calle de Génova 28",40.425400000000000,-3.691670000000000,,"http://www.crtm.es",2,"est_4_58",,0
"acc_4_59_167","59","Serrano","Calle de Goya 15",40.425480000000000,-3.687610000000000,,"http://www.crtm.es",2,"est_4_59",,0
"acc_4_59_168","59","Goya pares","Calle de Goya 4",40.425280000000000,-3.687600000000000,,"http://www.crtm.es",2,"est_4_59",,0
"acc_4_59_169","59","Goya impares","Calle de Goya 23",40.425400000000000,-3.686080000000000,,"http://www.crtm.es",2,"est_4_59",,0
"acc_4_59_170","59","Goya pares","Calle de Goya 10",40.425210000000000,-3.686080000000000,,"http://www.crtm.es",2,"est_4_59",,0
"acc_4_6_15","6","Reina Victoria impares","Gta de Cuatro Caminos 1",40.446710000000000,-3.704280000000000,,"http://www.crtm.es",2,"est_4_6",,0
"acc_4_6_16","6","Santa Engracia","Calle de Santa Engracia 168",40.446520000000000,-3.703620000000000,,"http://www.crtm.es",2,"est_4_6",,0
"acc_4_6_17","6","Reina Victoria pares","Avda de la Reina Victoria 3",40.446890000000000,-3.704560000000000,,"http://www.crtm.es",2,"est_4_6",,0
"acc_4_6_18","6","Bravo Murillo","Calle de Bravo Murillo 101",40.447370000000000,-3.704060000000000,,"http://www.crtm.es",2,"est_4_6",,0
"acc_4_6_19","6","Maudes","Calle de Maudes 8",40.445340000000000,-3.702580000000000,,"http://www.crtm.es",2,"est_4_6",,0
"acc_4_6_615","6","Ascensor exterior","Calle de Santa Engracia 179",40.446240000000000,-3.703750000000000,,"http://www.crtm.es",2,"est_4_6",,0
"acc_4_60_171","60","Goya impares","Calle de Goya 41",40.425250000000000,-3.683310000000000,,"http://www.crtm.es",2,"est_4_60",,0
"acc_4_60_172","60","Goya pares","Calle de Goya 20",40.425070000000000,-3.683450000000000,,"http://www.crtm.es",2,"est_4_60",,0
"acc_4_60_173","60","Goya impares","Calle de Goya 53",40.425190000000000,-3.681820000000000,,"http://www.crtm.es",2,"est_4_60",,0
"acc_4_60_174","60","Goya pares","Calle de Goya 32",40.424990000000000,-3.681820000000000,,"http://www.crtm.es",2,"est_4_60",,0
"acc_4_62_175","62","Conde de Peñalver","Calle del Conde de Peñalver 49",40.429710000000000,-3.675420000000000,,"http://www.crtm.es",2,"est_4_62",,0
"acc_4_62_176","62","Conde de Peñalver","Calle del Conde de Peñalver 39",40.428560000000000,-3.675540000000000,,"http://www.crtm.es",2,"est_4_62",,0
"acc_4_63_177","63","Diego de León","Calle de Diego de León 69",40.434630000000000,-3.675090000000000,,"http://www.crtm.es",2,"est_4_63",,0
"acc_4_63_178","63","Francisco Silvela impares","Calle de Francisco Silvela 63",40.434810000000000,-3.675010000000000,,"http://www.crtm.es",2,"est_4_63",,0
"acc_4_63_179","63","Francisco Silvela pares","Calle de Francisco Silvela 56",40.435000000000000,-3.674520000000000,,"http://www.crtm.es",2,"est_4_63",,0
"acc_4_63_180","63","Francisco Silvela pares","Calle  Francisco Silvela 54",40.434050000000000,-3.674800000000000,,"http://www.crtm.es",2,"est_4_63",,0
"acc_4_63_234","63","Juan Bravo - Conde Peñalver","Calle de Juan Bravo 52",40.432410000000000,-3.674900000000000,,"http://www.crtm.es",2,"est_4_63",,0
"acc_4_63_235","63","Juan Bravo - Alcántara","Calle de Juan Bravo 69",40.432350000000000,-3.673630000000000,,"http://www.crtm.es",2,"est_4_63",,0
"acc_4_63_236","63","Francisco Silvela pares","Calle de Francisco Silvela 34",40.432610000000000,-3.672370000000000,,"http://www.crtm.es",2,"est_4_63",,0
"acc_4_63_237","63","Francisco Silvela pares","Calle de Francisco Silvela 40",40.433190000000000,-3.672840000000000,,"http://www.crtm.es",2,"est_4_63",,0
"acc_4_63_238","63","Alcántara","Calle de Francisco Silvela 47",40.433200000000000,-3.673320000000000,,"http://www.crtm.es",2,"est_4_63",,0
"acc_4_64_181","64","Avda. América impares","Avda de América 3",40.437810000000000,-3.677200000000000,,"http://www.crtm.es",2,"est_90_4",,0
"acc_4_64_182","64","Avda. América pares","Avda de América 4",40.437660000000000,-3.676640000000000,,"http://www.crtm.es",2,"est_90_4",,0
"acc_4_64_184","64","Ascensor exterior intercambiador","Avda de América 3",40.437780000000000,-3.677050000000000,,"http://www.crtm.es",2,"est_90_4",,0
"acc_4_64_185","64","Pedro Valdivia","Calle de Pedro de Valdivia 31",40.438760000000000,-3.679400000000000,,"http://www.crtm.es",2,"est_90_4",,0
"acc_4_65_186","65","Plaza Prosperidad","Plaza de la Prosperidad 3",40.444280000000000,-3.674740000000000,,"http://www.crtm.es",2,"est_4_65",,0
"acc_4_66_187","66","Clara del Rey","Calle de Clara del Rey 83",40.448220000000000,-3.667860000000000,,"http://www.crtm.es",2,"est_4_66",,0
"acc_4_67_188","67","Ramón y Cajal pares","Calle de Ramón y Cajal 80",40.453250000000000,-3.661970000000000,,"http://www.crtm.es",2,"est_4_67",,0
"acc_4_67_189","67","Avenida de la Paz","Avda de Ramón y Cajal 78",40.452640000000000,-3.663720000000000,,"http://www.crtm.es",2,"est_4_67",,0
"acc_4_67_190","67","Ramón y Cajal impares","Avda de Ramón y Cajal 101",40.453480000000000,-3.662390000000000,,"http://www.crtm.es",2,"est_4_67",,0
"acc_4_68_191","68","Ulises","Calle de Ulises 1",40.456040000000000,-3.656170000000000,,"http://www.crtm.es",2,"est_4_68",,0
"acc_4_68_192","68","Arturo Soria","Calle de Arturo Soria 172",40.455650000000000,-3.656030000000000,,"http://www.crtm.es",2,"est_4_68",,0
"acc_4_68_193","68","José Silva impares","Calle de José Silva 1 A",40.455600000000000,-3.656740000000000,,"http://www.crtm.es",2,"est_4_68",,0
"acc_4_68_194","68","Ulises impares","Calle de Ulises 11",40.456870000000000,-3.654570000000000,,"http://www.crtm.es",2,"est_4_68",,0
"acc_4_69_195","69","Andorra","Calle de Andorra 51",40.459570000000000,-3.645860000000000,,"http://www.crtm.es",2,"est_4_69",,0
"acc_4_7_20","7","Ríos Rosas pares","Calle de Ríos Rosas 24",40.441890000000000,-3.701130000000000,,"http://www.crtm.es",2,"est_4_7",,0
"acc_4_7_21","7","Ríos Rosas impares","Calle de Ríos Rosas 19",40.442030000000000,-3.701100000000000,,"http://www.crtm.es",2,"est_4_7",,0
"acc_4_7_22","7","Bretón de los Herreros","Calle de Santa Engracia 120 A",40.440520000000000,-3.701270000000000,,"http://www.crtm.es",2,"est_4_7",,0
"acc_4_70_196","70","Avda. Machupichu impares","Avda de Machupichu 101",40.463770000000000,-3.635600000000000,,"http://www.crtm.es",2,"est_4_70",,0
"acc_4_70_197","70","Ramón Power","Calle de Ramón Power 1",40.463720000000000,-3.635160000000000,,"http://www.crtm.es",2,"est_4_70",,0
"acc_4_70_198","70","Montalbos","Avda de Machupichu 103",40.464610000000000,-3.635750000000000,,"http://www.crtm.es",2,"est_4_70",,0
"acc_4_70_199","70","Mota del Cuervo","Calle de Mota del Cuervo 2",40.465120000000000,-3.635410000000000,,"http://www.crtm.es",2,"est_4_70",,0
"acc_4_70_200","70","Ascensor","Avda de Machupichu 101",40.463710000000000,-3.635590000000000,,"http://www.crtm.es",2,"est_4_70",,0
"acc_4_71_201","71","Arequipa","Calle de los Emigrantes SN",40.468900000000000,-3.638330000000000,,"http://www.crtm.es",2,"est_4_71",,0
"acc_4_71_202","71","Gta. Mar de Cristal","Gta del Mar de Cristal 1",40.469440000000000,-3.638880000000000,,"http://www.crtm.es",2,"est_4_71",,0
"acc_4_71_203","71","Mar Adriático","Calle de Mar Adriático 2",40.470170000000000,-3.638550000000000,,"http://www.crtm.es",2,"est_4_71",,0
"acc_4_71_204","71","Ascensor","Gta del Mar de Cristal 1 B",40.469390000000000,-3.638880000000000,,"http://www.crtm.es",2,"est_4_71",,0
"acc_4_72_205","72","Avda. Barranquilla impares","Avda de la Barranquilla 15",40.474510000000000,-3.639570000000000,,"http://www.crtm.es",2,"est_4_72",,0
"acc_4_72_206","72","Avda. Barranquilla pares","Calle de Baranoa 2",40.474540000000000,-3.639390000000000,,"http://www.crtm.es",2,"est_4_72",,0
"acc_4_72_207","72","Ascensor","Avda de la Barranquilla 9",40.474300000000000,-3.639420000000000,,"http://www.crtm.es",2,"est_4_72",,0
"acc_4_73_208","73","Santa Virgilia","Calle de Santa Virgilia 1",40.477130000000000,-3.645520000000000,,"http://www.crtm.es",2,"est_4_73",,0
"acc_4_73_209","73","Los Arcos","Calle de Arcos 3",40.477290000000000,-3.645170000000000,,"http://www.crtm.es",2,"est_4_73",,0
"acc_4_73_210","73","Ascensor","Calle de Santa Virgilia 6",40.476970000000000,-3.644970000000000,,"http://www.crtm.es",2,"est_4_73",,0
"acc_4_74_1037","74","Alcalá - Josefa Valcárcel","Calle de Alcalá 636",40.449230000000000,-3.608970000000000,,"http://www.crtm.es",2,"est_4_74",,0
"acc_4_74_211","74","Alcalá impares","Calle de Alcalá 631",40.449490000000000,-3.608080000000000,,"http://www.crtm.es",2,"est_4_74",,0
"acc_4_74_212","74","Alcalá pares","Calle de Alcalá 640",40.449090000000000,-3.608140000000000,,"http://www.crtm.es",2,"est_4_74",,0
"acc_4_75_213","75","Alcalá impares","Calle de Alcalá 557",40.443730000000000,-3.617120000000000,,"http://www.crtm.es",2,"est_4_75",,0
"acc_4_75_214","75","Alcalá pares","Calle de Alcalá 550",40.443570000000000,-3.617000000000000,,"http://www.crtm.es",2,"est_4_75",,0
"acc_4_76_215","76","Alcalá pares","Calle de Alcalá 506",40.440750000000000,-3.627200000000000,,"http://www.crtm.es",2,"est_4_76",,0
"acc_4_76_216","76","Alcalá impares","Calle de Alcalá 527",40.441010000000000,-3.626840000000000,,"http://www.crtm.es",2,"est_4_76",,0
"acc_4_77_217","77","Hnos. García Noblejas","Calle de los Hnos. García Noblejas 2",40.437580000000000,-3.638060000000000,,"http://www.crtm.es",2,"est_4_77",,0
"acc_4_77_218","77","Misterios","Calle de Alcalá 416",40.437840000000000,-3.638460000000000,,"http://www.crtm.es",2,"est_4_77",,0
"acc_4_77_219","77","Arturo Soria","Calle de Arturo Soria 2",40.438190000000000,-3.638020000000000,,"http://www.crtm.es",2,"est_4_77",,0
"acc_4_77_220","77","Albarracín","Calle de Alcalá 434",40.438330000000000,-3.636040000000000,,"http://www.crtm.es",2,"est_4_77",,0
"acc_4_78_1028","78","Ascensor exterior","Calle de Alcalá 366",40.435290000000000,-3.643480000000000,,"http://www.crtm.es",2,"est_4_78",,0
"acc_4_78_221","78","Hnos. de Pablo","Calle de Alcalá 373",40.435250000000000,-3.643870000000000,,"http://www.crtm.es",2,"est_4_78",,0
"acc_4_78_222","78","Emilio Ferrari","Calle de Alcalá 360",40.435100000000000,-3.643890000000000,,"http://www.crtm.es",2,"est_4_78",,0
"acc_4_78_223","78","Doctor Vallejo","Calle de Alcalá 387",40.436080000000000,-3.642150000000000,,"http://www.crtm.es",2,"est_4_78",,0
"acc_4_78_224","78","Vicente Espinel","Calle de Alcalá 380",40.436070000000000,-3.641810000000000,,"http://www.crtm.es",2,"est_4_78",,0
"acc_4_78_225","78","Campuzano","Calle de Alcalá 378",40.435930000000000,-3.642110000000000,,"http://www.crtm.es",2,"est_4_78",,0
"acc_4_79_226","79","Hnos. Machado","Calle de Alcalá 306",40.432900000000000,-3.649160000000000,,"http://www.crtm.es",2,"est_4_79",,0
"acc_4_79_227","79","Argentina","Calle de Alcalá 333",40.433070000000000,-3.649110000000000,,"http://www.crtm.es",2,"est_4_79",,0
"acc_4_79_228","79","Ezequiel Solana","Calle de Alcalá 328",40.433580000000000,-3.646960000000000,,"http://www.crtm.es",2,"est_4_79",,0
"acc_4_79_229","79","Virgen del Sagrario","Calle de la Virgen del Sagrario 3",40.433680000000000,-3.647540000000000,,"http://www.crtm.es",2,"est_4_79",,0
"acc_4_8_23","8","General Martínez Campos","Paseo del General Martínez Campos 1",40.435060000000000,-3.698200000000000,,"http://www.crtm.es",2,"est_4_8",,0
"acc_4_8_24","8","Santa Engracia","Calle de Santa Engracia 58",40.434750000000000,-3.698530000000000,,"http://www.crtm.es",2,"est_4_8",,0
"acc_4_8_25","8","Sagunto","Calle de Santa Engracia 61",40.433890000000000,-3.698400000000000,,"http://www.crtm.es",2,"est_4_8",,0
"acc_4_8_26","8","Eloy Gonzalo pares","Calle de Eloy Gonzalo 38",40.434720000000000,-3.699240000000000,,"http://www.crtm.es",2,"est_4_8",,0
"acc_4_8_27","8","Eloy Gonzalo impares","Calle de Eloy Gonzalo 35",40.434900000000000,-3.699320000000000,,"http://www.crtm.es",2,"est_4_8",,0
"acc_4_8_774","8","Ascensor","Gta del Pintor Sorolla 5",40.435070000000000,-3.698460000000000,,"http://www.crtm.es",2,"est_4_8",,0
"acc_4_8_775","8","Ascensor","Gta del Pintor Sorolla 1",40.434790000000000,-3.698960000000000,,"http://www.crtm.es",2,"est_4_8",,0
"acc_4_80_230","80","J. Villena","Calle de Alcalá 246",40.432010000000000,-3.655600000000000,,"http://www.crtm.es",2,"est_4_80",,0
"acc_4_80_231","80","Alcalde López Casero","Calle del Alcalde López Casero 2",40.432440000000000,-3.655380000000000,,"http://www.crtm.es",2,"est_4_80",,0
"acc_4_80_232","80","Hnos. Fdez. Lanseros","Calle de Alcalá 234",40.431760000000000,-3.657390000000000,,"http://www.crtm.es",2,"est_4_80",,0
"acc_4_80_233","80","Raquel Meyer","Calle de Alcalá 261 B",40.431900000000000,-3.657440000000000,,"http://www.crtm.es",2,"est_4_80",,0
"acc_4_83_239","83","Velázquez","Calle de Velazquez 92",40.432810000000000,-3.683130000000000,,"http://www.crtm.es",2,"est_4_83",,0
"acc_4_83_240","83","Núñez de Balboa","Calle de Nuñez de Balboa 85",40.432770000000000,-3.682300000000000,,"http://www.crtm.es",2,"est_4_83",,0
"acc_4_83_242","83","Pza. Marqués de Salamanca","Plaza del Marqués de Salamanca 10",40.429740000000000,-3.679350000000000,,"http://www.crtm.es",2,"est_4_83",,0
"acc_4_84_243","84","Almagro","Gta de Rubén Darío 4",40.432760000000000,-3.690970000000000,,"http://www.crtm.es",2,"est_4_84",,0
"acc_4_84_244","84","Miguel Angel","Gta de Rubén Darío 3",40.433180000000000,-3.691000000000000,,"http://www.crtm.es",2,"est_4_84",,0
"acc_4_84_245","84","Castellana","Paseo de la Castellana 35",40.433300000000000,-3.688730000000000,,"http://www.crtm.es",2,"est_4_84",,0
"acc_4_86_246","86","Plaza de Chueca","Plaza de Chueca 4",40.422630000000000,-3.697670000000000,,"http://www.crtm.es",2,"est_4_86",,0
"acc_4_9_28","9","Fuencarral","Gta de Bilbao 5",40.429260000000000,-3.701930000000000,,"http://www.crtm.es",2,"est_4_9",,0
"acc_4_9_29","9","Luchana","Gta de Bilbao 2",40.429100000000000,-3.701640000000000,,"http://www.crtm.es",2,"est_4_9",,0
"acc_4_9_30","9","Manuela Malasaña","Gta de Bilbao 7",40.428760000000000,-3.702060000000000,,"http://www.crtm.es",2,"est_4_9",,0
"acc_4_9_31","9","Francisco de Rojas","Calle de Luchana 22",40.430290000000000,-3.700230000000000,,"http://www.crtm.es",2,"est_4_9",,0
"acc_4_9_32","9","Luchana impares","Calle de Luchana 21",40.430500000000000,-3.700300000000000,,"http://www.crtm.es",2,"est_4_9",,0
"acc_4_9_33","9","Trafalgar","Calle de Luchana 23",40.430890000000000,-3.699830000000000,,"http://www.crtm.es",2,"est_4_9",,0
"acc_4_90_247","90","San Francisco","Calle de Toledo 56",40.411080000000000,-3.708680000000000,,"http://www.crtm.es",2,"est_4_90",,0
"acc_4_90_248","90","San Millán","Calle de toledo 65",40.411130000000000,-3.708130000000000,,"http://www.crtm.es",2,"est_4_90",,0
"acc_4_90_249","90","Toledo","Calle de Toledo 52 A",40.411660000000000,-3.708210000000000,,"http://www.crtm.es",2,"est_4_90",,0
"acc_4_91_250","91","Puerta de Toledo","Gta de Puerta de Toledo 1",40.406810000000000,-3.710870000000000,,"http://www.crtm.es",2,"est_4_91",,0
"acc_4_92_251","92","Pº Esperanza","Paseo de la Esperanza 2 A",40.403760000000000,-3.706560000000000,,"http://www.crtm.es",2,"est_4_46",,0
"acc_4_93_252","93","Pº de las Acacias pares","Paseo de las Acacias 58",40.401570000000000,-3.712850000000000,,"http://www.crtm.es",2,"est_4_93",,0
"acc_4_93_253","93","Pº de las Acacias impares","Paseo de las Acacias 61 B",40.401430000000000,-3.712690000000000,,"http://www.crtm.es",2,"est_4_93",,0
"acc_4_93_255","93","Acceso RENFE","Plaza de Ortega y Munilla SN",40.402580000000000,-3.711360000000000,,"http://www.crtm.es",2,"est_4_93",,0
"acc_4_93_256","93","Ascensor exterior RENFE","Plaza de Ortega y Munilla SN",40.402540000000000,-3.711380000000000,,"http://www.crtm.es",2,"est_4_93",,0
"acc_4_94_257","94","Antonio Leyva","Gta del Marqués de Vadillo 5",40.397300000000000,-3.716070000000000,,"http://www.crtm.es",2,"est_4_94",,0
"acc_4_94_258","94","Avda. Emperatriz Isabel","Gta del Marqués de Vadillo 6",40.397660000000000,-3.716380000000000,,"http://www.crtm.es",2,"est_4_94",,0
"acc_4_95_259","95","Toboso","Calle del General Ricardos 104",40.392650000000000,-3.725330000000000,,"http://www.crtm.es",2,"est_4_95",,0
"acc_4_95_260","95","San Patricio","Calle del General Ricardos 85",40.393650000000000,-3.723100000000000,,"http://www.crtm.es",2,"est_4_95",,0
"acc_4_95_261","95","Camino Viejo de Leganés","Calle del Camino Viejo de Leganés 1",40.393300000000000,-3.723630000000000,,"http://www.crtm.es",2,"est_4_95",,0
"acc_4_95_262","95","Peñafiel","Calle del General Ricardos 80",40.393530000000000,-3.723700000000000,,"http://www.crtm.es",2,"est_4_95",,0
"acc_4_96_263","96","Valle de Oro","Gta del Valle de Oro 13",40.388440000000000,-3.731270000000000,,"http://www.crtm.es",2,"est_4_96",,0
"acc_4_96_264","96","Oca","Calle del General Ricardos 164",40.388650000000000,-3.731710000000000,,"http://www.crtm.es",2,"est_4_96",,0
"acc_4_96_265","96","General Ricardos pares","Calle del General Ricardos 148 A",40.389870000000000,-3.729850000000000,,"http://www.crtm.es",2,"est_4_96",,0
"acc_4_96_266","96","General Ricardos impares","Calle del General Ricardos 143",40.389750000000000,-3.729730000000000,,"http://www.crtm.es",2,"est_4_96",,0
"acc_4_97_267","97","Pinzón","Calle de la Oca 69",40.388690000000000,-3.739930000000000,,"http://www.crtm.es",2,"est_4_97",,0
"acc_4_97_268","97","Oca","Calle de la Oca 43",40.389290000000000,-3.737540000000000,,"http://www.crtm.es",2,"est_4_97",,0
"acc_4_98_269","98","Glorieta del Ejército","Gta del Ejército SN",40.387900000000000,-3.744850000000000,,"http://www.crtm.es",2,"est_4_98",,0
"acc_4_99_270","99","Ntra. Sra. de la Luz","Calle de Ocaña 70",40.384760000000000,-3.750580000000000,,"http://www.crtm.es",2,"est_4_99",,0
"est_4_10","10","TRIBUNAL","",40.426190000000000,-3.701100000000000,"A","http://www.crtm.es",1,,"Europe/Madrid",0
"est_4_101","101","EMPALME","",40.390570000000000,-3.765350000000000,"A","http://www.crtm.es",1,,"Europe/Madrid",2
"est_4_102","102","CAMPAMENTO","",40.394810000000000,-3.768130000000000,"A","http://www.crtm.es",1,,"Europe/Madrid",0
"est_4_103","103","CASA DE CAMPO","",40.403240000000000,-3.761010000000000,"A","http://www.crtm.es",1,,"Europe/Madrid",2
"est_4_104","104","LAGUNA","",40.399230000000000,-3.744290000000000,"A","http://www.crtm.es",1,,"Europe/Madrid",0
"est_4_105","105","CARPETANA","",40.392700000000000,-3.740990000000000,"A","http://www.crtm.es",1,,"Europe/Madrid",0
"est_4_107","107","OPAÑEL","",40.386900000000000,-3.723130000000000,"A","http://www.crtm.es",1,,"Europe/Madrid",0
"est_4_109","109","USERA","",40.387100000000000,-3.706900000000000,"A","http://www.crtm.es",1,,"Europe/Madrid",0
"est_4_11","11","GRAN VIA","",40.420010000000000,-3.701800000000000,"A","http://www.crtm.es",1,,"Europe/Madrid",0
"est_4_113","113","CONDE DE CASAL","",40.406970000000000,-3.670410000000000,"A","http://www.crtm.es",1,,"Europe/Madrid",2
"est_4_114","114","SAINZ DE BARANDA","",40.415070000000000,-3.669510000000000,"A","http://www.crtm.es",1,,"Europe/Madrid",0
"est_4_115","115","ODONNELL","",40.422890000000000,-3.668600000000000,"A","http://www.crtm.es",1,,"Europe/Madrid",0
"est_4_119","119","REPUBLICA ARGENTINA","",40.443790000000000,-3.684060000000000,"A","http://www.crtm.es",1,,"Europe/Madrid",0
"est_4_122","122","GUZMAN EL BUENO","",40.446370000000000,-3.712290000000000,"A","http://www.crtm.es",1,,"Europe/Madrid",2
"est_4_123","123","METROPOLITANO","",40.446440000000000,-3.719430000000000,"A","http://www.crtm.es",1,,"Europe/Madrid",0
"est_4_124","124","CIUDAD UNIVERSITARIA","",40.443560000000000,-3.726780000000000,"A","http://www.crtm.es",1,,"Europe/Madrid",2
"est_4_128","128","PUERTA DEL ANGEL","",40.413900000000000,-3.727240000000000,"A","http://www.crtm.es",1,,"Europe/Madrid",0
"est_4_129","129","ALTO DE EXTREMADURA","",40.409930000000000,-3.738940000000000,"A","http://www.crtm.es",1,,"Europe/Madrid",0
"est_4_13","13","TIRSO DE MOLINA","",40.412350000000000,-3.704660000000000,"A","http://www.crtm.es",1,,"Europe/Madrid",0
"est_4_130","130","LUCERO","",40.405100000000000,-3.745340000000000,"A","http://www.crtm.es",1,,"Europe/Madrid",2
"est_4_132","132","LAS MUSAS","",40.432990000000000,-3.607880000000000,"A","http://www.crtm.es",1,,"Europe/Madrid",0
"est_4_133","133","SAN BLAS","",40.427990000000000,-3.615470000000000,"A","http://www.crtm.es",1,,"Europe/Madrid",0
"est_4_134","134","SIMANCAS","",40.427990000000000,-3.625720000000000,"A","http://www.crtm.es",1,,"Europe/Madrid",0
"est_4_135","135","GARCIA NOBLEJAS","",40.428420000000000,-3.633300000000000,"A","http://www.crtm.es",1,,"Europe/Madrid",0
"est_4_136","136","ASCAO","",40.430210000000000,-3.641060000000000,"A","http://www.crtm.es",1,,"Europe/Madrid",0
"est_4_138","138","BARRIO DE LA CONCEPCION","",40.439100000000000,-3.652000000000000,"A","http://www.crtm.es",1,,"Europe/Madrid",0
"est_4_139","139","PARQUE DE LAS AVENIDAS","",40.439450000000000,-3.662970000000000,"A","http://www.crtm.es",1,,"Europe/Madrid",0
"est_4_14","14","ANTON MARTIN","",40.412460000000000,-3.699370000000000,"A","http://www.crtm.es",1,,"Europe/Madrid",0
"est_4_140","140","CARTAGENA","",40.439340000000000,-3.672150000000000,"A","http://www.crtm.es",1,,"Europe/Madrid",0
"est_4_142","142","GREGORIO MARAÑON","",40.438250000000000,-3.691480000000000,"A","http://www.crtm.es",1,,"Europe/Madrid",2
"est_4_143","143","ALONSO CANO","",40.438380000000000,-3.699250000000000,"A","http://www.crtm.es",1,,"Europe/Madrid",2
"est_4_145","145","ISLAS FILIPINAS","",40.439070000000000,-3.713730000000000,"A","http://www.crtm.es",1,,"Europe/Madrid",2
"est_4_147","147","FRANCOS RODRIGUEZ","",40.456480000000000,-3.712390000000000,"A","http://www.crtm.es",1,,"Europe/Madrid",2
"est_4_148","148","VALDEZARZA","",40.464820000000000,-3.715970000000000,"A","http://www.crtm.es",1,,"Europe/Madrid",2
"est_4_149","149","ANTONIO MACHADO","",40.470220000000000,-3.717690000000000,"A","http://www.crtm.es",1,,"Europe/Madrid",2
"est_4_15","15","ATOCHA","",40.408850000000000,-3.692490000000000,"A","http://www.crtm.es",1,,"Europe/Madrid",0
"est_4_150","150","PEÑAGRANDE","",40.475920000000000,-3.715820000000000,"A","http://www.crtm.es",1,,"Europe/Madrid",0
"est_4_151","151","AVDA. DE LA ILUSTRACION","",40.480100000000000,-3.718400000000000,"A","http://www.crtm.es",1,,"Europe/Madrid",2
"est_4_152","152","LACOMA","",40.485020000000000,-3.723050000000000,"A","http://www.crtm.es",1,,"Europe/Madrid",2
"est_4_154","154","PITIS","",40.495110000000000,-3.725890000000000,"A","http://www.crtm.es",1,,"Europe/Madrid",2
"est_4_156","156","COLOMBIA","",40.456340000000000,-3.676820000000000,"A","http://www.crtm.es",1,,"Europe/Madrid",2
"est_4_158","158","FERIA DE MADRID","",40.463890000000000,-3.616200000000000,"A","http://www.crtm.es",1,,"Europe/Madrid",2
"est_4_160","160","BARAJAS","",40.475770000000000,-3.582530000000000,"A","http://www.crtm.es",1,,"Europe/Madrid",2
"est_4_161","161","HERRERA ORIA","",40.484660000000000,-3.707510000000000,"A","http://www.crtm.es",1,,"Europe/Madrid",0
"est_4_162","162","BARRIO DEL PILAR","",40.476890000000000,-3.703160000000000,"A","http://www.crtm.es",1,,"Europe/Madrid",0
"est_4_163","163","VENTILLA","",40.469440000000000,-3.695880000000000,"A","http://www.crtm.es",1,,"Europe/Madrid",0
"est_4_165","165","DUQUE DE PASTRANA","",40.467630000000000,-3.679170000000000,"A","http://www.crtm.es",1,,"Europe/Madrid",0
"est_4_166","166","PIO XII","",40.463000000000000,-3.675790000000000,"A","http://www.crtm.es",1,,"Europe/Madrid",0
"est_4_168","168","CONCHA ESPINA","",40.451450000000000,-3.677380000000000,"A","http://www.crtm.es",1,,"Europe/Madrid",0
"est_4_169","169","CRUZ DEL RAYO","",40.444270000000000,-3.678210000000000,"A","http://www.crtm.es",1,,"Europe/Madrid",0
"est_4_17","17","MENENDEZ PELAYO","",40.404450000000000,-3.680980000000000,"A","http://www.crtm.es",1,,"Europe/Madrid",0
"est_4_173","173","IBIZA","",40.418390000000000,-3.678580000000000,"A","http://www.crtm.es",1,,"Europe/Madrid",0
"est_4_175","175","ESTRELLA","",40.411470000000000,-3.661790000000000,"A","http://www.crtm.es",1,,"Europe/Madrid",0
"est_4_176","176","VINATEROS","",40.410240000000000,-3.652730000000000,"A","http://www.crtm.es",1,,"Europe/Madrid",0
"est_4_177","177","ARTILLEROS","",40.405220000000000,-3.641810000000000,"A","http://www.crtm.es",1,,"Europe/Madrid",0
"est_4_178","178","PAVONES","",40.400510000000000,-3.635120000000000,"A","http://www.crtm.es",1,,"Europe/Madrid",0
"est_4_179","179","VALDEBERNARDO","",40.400050000000000,-3.621560000000000,"A","http://www.crtm.es",1,,"Europe/Madrid",2
"est_4_18","18","PACIFICO","",40.401260000000000,-3.675140000000000,"A","http://www.crtm.es",1,,"Europe/Madrid",0
"est_4_180","180","VICALVARO","",40.404220000000000,-3.608860000000000,"A","http://www.crtm.es",1,,"Europe/Madrid",2
"est_4_181","181","SAN CIPRIANO","",40.403810000000000,-3.602390000000000,"A","http://www.crtm.es",1,,"Europe/Madrid",2
"est_4_182","182","PUERTA DE ARGANDA","",40.401320000000000,-3.595980000000000,"A","http://www.crtm.es",1,,"Europe/Madrid",2
"est_4_183","183","RIVAS URBANIZACIONES","",40.366770000000000,-3.547280000000000,"B1","http://www.crtm.es",1,,"Europe/Madrid",2
"est_4_184","184","RIVAS VACIAMADRID","",40.328370000000000,-3.520600000000000,"B2","http://www.crtm.es",1,,"Europe/Madrid",2
"est_4_185","185","LA POVEDA","",40.319020000000000,-3.477450000000000,"B3","http://www.crtm.es",1,,"Europe/Madrid",2
"est_4_186","186","ARGANDA DEL REY","",40.303670000000000,-3.447520000000000,"B3","http://www.crtm.es",1,,"Europe/Madrid",2
"est_4_187","187","FUENCARRAL","",40.495090000000000,-3.692830000000000,"A","http://www.crtm.es",1,,"Europe/Madrid",0
"est_4_188","188","BEGOÑA","",40.480410000000000,-3.685850000000000,"A","http://www.crtm.es",1,,"Europe/Madrid",0
"est_4_19","19","PUENTE DE VALLECAS","",40.398190000000000,-3.669060000000000,"A","http://www.crtm.es",1,,"Europe/Madrid",0
"est_4_191","191","CUZCO","",40.458420000000000,-3.689850000000000,"A","http://www.crtm.es",1,,"Europe/Madrid",0
"est_4_192","192","SANTIAGO BERNABEU","",40.451590000000000,-3.690380000000000,"A","http://www.crtm.es",1,,"Europe/Madrid",0
"est_4_199","199","LAGO","",40.416410000000000,-3.735630000000000,"A","http://www.crtm.es",1,,"Europe/Madrid",2
"est_4_2","2","VALDEACEDERAS","",40.464420000000000,-3.695060000000000,"A","http://www.crtm.es",1,,"Europe/Madrid",0
"est_4_20","20","NUEVA NUMANCIA","",40.395540000000000,-3.664140000000000,"A","http://www.crtm.es",1,,"Europe/Madrid",0
"est_4_200","200","BATAN","",40.407860000000000,-3.753110000000000,"A","http://www.crtm.es",1,,"Europe/Madrid",2
"est_4_202","202","COLONIA JARDIN","",40.396980000000000,-3.774620000000000,"A","http://www.crtm.es",1,,"Europe/Madrid",2
"est_4_203","203","CUATRO VIENTOS","",40.377710000000000,-3.791520000000000,"A","http://www.crtm.es",1,,"Europe/Madrid",2
"est_4_204","204","JOAQUIN VILUMBRALES","",40.349850000000000,-3.807200000000000,"B1","http://www.crtm.es",1,,"Europe/Madrid",2
"est_4_205","205","PUERTA DEL SUR","",40.345240000000000,-3.812110000000000,"B1","http://www.crtm.es",1,,"Europe/Madrid",2
"est_4_207","207","ABRANTES","",40.380830000000000,-3.727900000000000,"A","http://www.crtm.es",1,,"Europe/Madrid",2
"est_4_208","208","PAN BENDITO","",40.375870000000000,-3.734170000000000,"A","http://www.crtm.es",1,,"Europe/Madrid",2
"est_4_21","21","PORTAZGO","",40.392660000000000,-3.658680000000000,"A","http://www.crtm.es",1,,"Europe/Madrid",0
"est_4_210","210","PARQUE LISBOA","",40.349690000000000,-3.821200000000000,"B1","http://www.crtm.es",1,,"Europe/Madrid",2
"est_4_211","211","ALCORCON CENTRAL","",40.350080000000000,-3.831780000000000,"B1","http://www.crtm.es",1,,"Europe/Madrid",2
"est_4_212","212","PARQUE OESTE","",40.345890000000000,-3.849340000000000,"B1","http://www.crtm.es",1,,"Europe/Madrid",2
"est_4_213","213","UNIVERSIDAD REY JUAN CARLOS","",40.335120000000000,-3.872180000000000,"B2","http://www.crtm.es",1,,"Europe/Madrid",2
"est_4_214","214","MOSTOLES CENTRAL","",40.328500000000000,-3.863540000000000,"B2","http://www.crtm.es",1,,"Europe/Madrid",2
"est_4_215","215","PRADILLO","",40.321680000000000,-3.864890000000000,"B2","http://www.crtm.es",1,,"Europe/Madrid",2
"est_4_216","216","HOSPITAL DE MOSTOLES","",40.316520000000000,-3.874710000000000,"B2","http://www.crtm.es",1,,"Europe/Madrid",2
"est_4_217","217","MANUELA MALASAÑA","",40.309030000000000,-3.864020000000000,"B2","http://www.crtm.es",1,,"Europe/Madrid",2
"est_4_218","218","LORANCA","",40.296810000000000,-3.837680000000000,"B2","http://www.crtm.es",1,,"Europe/Madrid",2
"est_4_219","219","HOSPITAL DE FUENLABRADA","",40.285760000000000,-3.816420000000000,"B2","http://www.crtm.es",1,,"Europe/Madrid",2
"est_4_22","22","BUENOS AIRES","",40.391560000000000,-3.653910000000000,"A","http://www.crtm.es",1,,"Europe/Madrid",0
"est_4_220","220","PARQUE EUROPA","",40.285180000000000,-3.806320000000000,"B2","http://www.crtm.es",1,,"Europe/Madrid",2
"est_4_221","221","FUENLABRADA CENTRAL","",40.282680000000000,-3.798910000000000,"B2","http://www.crtm.es",1,,"Europe/Madrid",2
"est_4_222","222","PARQUE DE LOS ESTADOS","",40.286840000000000,-3.786970000000000,"B2","http://www.crtm.es",1,,"Europe/Madrid",2
"est_4_223","223","ARROYO CULEBRO","",40.288740000000000,-3.756820000000000,"B1","http://www.crtm.es",1,,"Europe/Madrid",2
"est_4_224","224","CONSERVATORIO","",40.293240000000000,-3.745760000000000,"B1","http://www.crtm.es",1,,"Europe/Madrid",2
"est_4_225","225","ALONSO DE MENDOZA","",40.300810000000000,-3.736640000000000,"B1","http://www.crtm.es",1,,"Europe/Madrid",2
"est_4_226","226","GETAFE CENTRAL","",40.309930000000000,-3.734030000000000,"B1","http://www.crtm.es",1,,"Europe/Madrid",2
"est_4_227","227","JUAN DE LA CIERVA","",40.311800000000000,-3.722240000000000,"B1","http://www.crtm.es",1,,"Europe/Madrid",2
"est_4_228","228","EL CASAR","",40.318620000000000,-3.709850000000000,"B1","http://www.crtm.es",1,,"Europe/Madrid",2
"est_4_229","229","LOS ESPARTALES","",40.324230000000000,-3.718200000000000,"B1","http://www.crtm.es",1,,"Europe/Madrid",2
"est_4_23","23","ALTO DEL ARENAL","",40.389770000000000,-3.645220000000000,"A","http://www.crtm.es",1,,"Europe/Madrid",2
"est_4_230","230","EL BERCIAL","",40.329070000000000,-3.729630000000000,"B1","http://www.crtm.es",1,,"Europe/Madrid",2
"est_4_231","231","EL CARRASCAL","",40.336640000000000,-3.740180000000000,"B1","http://www.crtm.es",1,,"Europe/Madrid",2
"est_4_232","232","JULIAN BESTEIRO","",40.334750000000000,-3.752660000000000,"B1","http://www.crtm.es",1,,"Europe/Madrid",2
"est_4_233","233","CASA DEL RELOJ","",40.326600000000000,-3.759420000000000,"B1","http://www.crtm.es",1,,"Europe/Madrid",2
"est_4_234","234","HOSPITAL SEVERO OCHOA","",40.321770000000000,-3.767970000000000,"B1","http://www.crtm.es",1,,"Europe/Madrid",2
"est_4_235","235","LEGANES CENTRAL","",40.328990000000000,-3.771540000000000,"B1","http://www.crtm.es",1,,"Europe/Madrid",2
"est_4_236","236","SAN NICASIO","",40.336160000000000,-3.775870000000000,"B1","http://www.crtm.es",1,,"Europe/Madrid",2
"est_4_24","24","MIGUEL HERNANDEZ","",40.387320000000000,-3.639510000000000,"A","http://www.crtm.es",1,,"Europe/Madrid",2
"est_4_25","25","SIERRA DE GUADALUPE","",40.382160000000000,-3.624720000000000,"A","http://www.crtm.es",1,,"Europe/Madrid",2
"est_4_252","252","ALAMEDA DE OSUNA","",40.457790000000000,-3.587520000000000,"A","http://www.crtm.es",1,,"Europe/Madrid",2
"est_4_253","253","EL CAPRICHO","",40.453470000000000,-3.594010000000000,"A","http://www.crtm.es",1,,"Europe/Madrid",2
"est_4_254","254","SAN FRANCISCO","",40.373600000000000,-3.739100000000000,"A","http://www.crtm.es",1,,"Europe/Madrid",2
"est_4_255","255","CARABANCHEL ALTO","",40.372000000000000,-3.751910000000000,"A","http://www.crtm.es",1,,"Europe/Madrid",2
"est_4_256","256","LA PESETA","",40.364220000000000,-3.756900000000000,"A","http://www.crtm.es",1,,"Europe/Madrid",2
"est_4_257","257","AVIACION ESPAÑOLA","",40.383640000000000,-3.783920000000000,"A","http://www.crtm.es",1,,"Europe/Madrid",2
"est_4_258","258","PINAR DEL REY","",40.468000000000000,-3.648670000000000,"A","http://www.crtm.es",1,,"Europe/Madrid",2
"est_4_259","259","ARGANZUELA-PLANETARIO","",40.393100000000000,-3.688640000000000,"A","http://www.crtm.es",1,,"Europe/Madrid",2
"est_4_26","26","VILLA DE VALLECAS","",40.379600000000000,-3.621300000000000,"A","http://www.crtm.es",1,,"Europe/Madrid",2
"est_4_260","260","LA ELIPA","",40.426620000000000,-3.650520000000000,"A","http://www.crtm.es",1,,"Europe/Madrid",2
"est_4_262","262","BAMBU","",40.476820000000000,-3.676370000000000,"A","http://www.crtm.es",1,,"Europe/Madrid",2
"est_4_263","263","PINAR DE CHAMARTIN","",40.480140000000000,-3.666800000000000,"A","http://www.crtm.es",1,,"Europe/Madrid",2
"est_4_264","264","HORTALEZA","",40.475370000000000,-3.652570000000000,"A","http://www.crtm.es",1,,"Europe/Madrid",2
"est_4_265","265","MANOTERAS","",40.476870000000000,-3.662900000000000,"A","http://www.crtm.es",1,,"Europe/Madrid",2
"est_4_267","267","ALMENDRALES","",40.384090000000000,-3.697880000000000,"A","http://www.crtm.es",1,,"Europe/Madrid",2
"est_4_268","268","HOSPITAL 12 DE OCTUBRE","",40.375030000000000,-3.695850000000000,"A","http://www.crtm.es",1,,"Europe/Madrid",2
"est_4_269","269","SAN FERMIN-ORCASUR","",40.369990000000000,-3.694180000000000,"A","http://www.crtm.es",1,,"Europe/Madrid",2
"est_4_27","27","CONGOSTO","",40.372380000000000,-3.618840000000000,"A","http://www.crtm.es",1,,"Europe/Madrid",2
"est_4_270","270","CIUDAD DE LOS ANGELES","",40.359590000000000,-3.693630000000000,"A","http://www.crtm.es",1,,"Europe/Madrid",2
"est_4_271","271","VILLAVERDE BAJO-CRUCE","",40.350890000000000,-3.692650000000000,"A","http://www.crtm.es",1,,"Europe/Madrid",2
"est_4_272","272","SAN CRISTOBAL","",40.341540000000000,-3.693180000000000,"A","http://www.crtm.es",1,,"Europe/Madrid",2
"est_4_273","273","VILLAVERDE ALTO","",40.341230000000000,-3.711990000000000,"A","http://www.crtm.es",1,,"Europe/Madrid",2
"est_4_274","274","TRES OLIVOS","",40.501200000000000,-3.695200000000000,"A","http://www.crtm.es",1,,"Europe/Madrid",2
"est_4_275","275","MONTECARMELO","",40.505250000000000,-3.695750000000000,"A","http://www.crtm.es",1,,"Europe/Madrid",2
"est_4_276","276","LAS TABLAS","",40.508330000000000,-3.669440000000000,"A","http://www.crtm.es",1,,"Europe/Madrid",2
"est_4_277","277","RONDA DE LA COMUNICACION","",40.515530000000000,-3.662770000000000,"A","http://www.crtm.es",1,,"Europe/Madrid",2
"est_4_278","278","LA GRANJA","",40.527600000000000,-3.658590000000000,"B1","http://www.crtm.es",1,,"Europe/Madrid",2
"est_4_279","279","LA MORALEJA","",40.531960000000000,-3.635560000000000,"B1","http://www.crtm.es",1,,"Europe/Madrid",2
"est_4_28","28","VENTAS","",40.430880000000000,-3.663660000000000,"A","http://www.crtm.es",1,,"Europe/Madrid",0
"est_4_280","280","MARQUES DE LA VALDAVIA","",40.541020000000000,-3.637380000000000,"B1","http://www.crtm.es",1,,"Europe/Madrid",2
"est_4_281","281","MANUEL DE FALLA","",40.550480000000000,-3.646880000000000,"B1","http://www.crtm.es",1,,"Europe/Madrid",2
"est_4_282","282","BAUNATAL","",40.554420000000000,-3.635130000000000,"B1","http://www.crtm.es",1,,"Europe/Madrid",2
"est_4_283","283","REYES CATOLICOS","",40.550370000000000,-3.623400000000000,"B1","http://www.crtm.es",1,,"Europe/Madrid",2
"est_4_284","284","HOSPITAL INFANTA SOFÍA","",40.559770000000000,-3.611450000000000,"B1","http://www.crtm.es",1,,"Europe/Madrid",2
"est_4_286","286","ESTADIO METROPOLITANO","",40.433390000000000,-3.600150000000000,"A","http://www.crtm.es",1,,"Europe/Madrid",2
"est_4_287","287","BARRIO DEL PUERTO","",40.422500000000000,-3.569190000000000,"B1","http://www.crtm.es",1,,"Europe/Madrid",2
"est_4_288","288","COSLADA CENTRAL","",40.423740000000000,-3.561190000000000,"B1","http://www.crtm.es",1,,"Europe/Madrid",2
"est_4_289","289","LA RAMBLA","",40.425140000000000,-3.547920000000000,"B1","http://www.crtm.es",1,,"Europe/Madrid",2
"est_4_29","29","MANUEL BECERRA","",40.427900000000000,-3.669260000000000,"A","http://www.crtm.es",1,,"Europe/Madrid",0
"est_4_290","290","SAN FERNANDO","",40.424410000000000,-3.535410000000000,"B1","http://www.crtm.es",1,,"Europe/Madrid",2
"est_4_291","291","JARAMA","",40.422950000000000,-3.525490000000000,"B1","http://www.crtm.es",1,,"Europe/Madrid",2
"est_4_292","292","HENARES","",40.417770000000000,-3.527180000000000,"B1","http://www.crtm.es",1,,"Europe/Madrid",2
"est_4_293","293","LA GAVIA","",40.370190000000000,-3.613460000000000,"A","http://www.crtm.es",1,,"Europe/Madrid",2
"est_4_294","294","LAS SUERTES","",40.363230000000000,-3.599530000000000,"A","http://www.crtm.es",1,,"Europe/Madrid",2
"est_4_295","295","VALDECARROS","",40.360070000000000,-3.593160000000000,"A","http://www.crtm.es",1,,"Europe/Madrid",2
"est_4_296","296","HOSPITAL DEL HENARES","",40.417610000000000,-3.534530000000000,"B1","http://www.crtm.es",1,,"Europe/Madrid",2
"est_4_3","3","TETUAN","",40.460550000000000,-3.698250000000000,"A","http://www.crtm.es",1,,"Europe/Madrid",0
"est_4_30","30","GOYA","",40.424550000000000,-3.675910000000000,"A","http://www.crtm.es",1,,"Europe/Madrid",2
"est_4_300","300","RIVAS FUTURA","",40.341340000000000,-3.524790000000000,"B1","http://www.crtm.es",1,,"Europe/Madrid",2
"est_4_305","305","LA FORTUNA","",40.357950000000000,-3.777830000000000,,"http://www.crtm.es",1,,"Europe/Madrid",0
"est_4_31","31","PRINCIPE DE VERGARA","",40.422940000000000,-3.680120000000000,"A","http://www.crtm.es",1,,"Europe/Madrid",0
"est_4_32","32","RETIRO","",40.420310000000000,-3.686240000000000,"A","http://www.crtm.es",1,,"Europe/Madrid",0
"est_4_322","322","LA ALMUDENA","",40.423610000000000,-3.639140000000000,,"http://www.crtm.es",1,,"Europe/Madrid",0
"est_4_323","323","ALSACIA","",40.418290000000000,-3.623510000000000,,"http://www.crtm.es",1,,"Europe/Madrid",0
"est_4_324","324","AVENIDA DE GUADALAJARA","",40.422390000000000,-3.612060000000000,"A","http://www.crtm.es",1,,"Europe/Madrid",0
"est_4_325","325","LAS ROSAS","",40.423750000000000,-3.603310000000000,"A","http://www.crtm.es",1,,"Europe/Madrid",0
"est_4_326","326","MIRASIERRA","",40.491100000000000,-3.716340000000000,,"http://www.crtm.es",1,,"Europe/Madrid",0
"est_4_33","33","BANCO DE ESPAÑA","",40.419220000000000,-3.694970000000000,"A","http://www.crtm.es",1,,"Europe/Madrid",0
"est_4_34","34","SEVILLA","",40.418050000000000,-3.699250000000000,"A","http://www.crtm.es",1,,"Europe/Madrid",0
"est_4_345","345","PACO DE LUCIA","",40.499650000000000,-3.709080000000000,,"http://www.crtm.es",1,,"Europe/Madrid",0
"est_4_36","36","OPERA","",40.418090000000000,-3.709420000000000,"A","http://www.crtm.es",1,,"Europe/Madrid",0
"est_4_37","37","SANTO DOMINGO","",40.421320000000000,-3.707960000000000,"A","http://www.crtm.es",1,,"Europe/Madrid",0
"est_4_39","39","SAN BERNARDO","",40.430010000000000,-3.705570000000000,"A","http://www.crtm.es",1,,"Europe/Madrid",0
"est_4_4","4","ESTRECHO","",40.454290000000000,-3.703020000000000,"A","http://www.crtm.es",1,,"Europe/Madrid",0
"est_4_40","40","QUEVEDO","",40.433220000000000,-3.704330000000000,"A","http://www.crtm.es",1,,"Europe/Madrid",0
"est_4_41","41","CANAL","",40.438410000000000,-3.704330000000000,"A","http://www.crtm.es",1,,"Europe/Madrid",2
"est_4_43","43","LEGAZPI","",40.391160000000000,-3.695110000000000,"A","http://www.crtm.es",1,,"Europe/Madrid",2
"est_4_44","44","DELICIAS","",40.399900000000000,-3.694200000000000,"A","http://www.crtm.es",1,,"Europe/Madrid",2
"est_4_45","45","PALOS DE LA FRONTERA","",40.403070000000000,-3.694230000000000,"A","http://www.crtm.es",1,,"Europe/Madrid",2
"est_4_46","46","EMBAJADORES","",40.405130000000000,-3.702680000000000,"A","http://www.crtm.es",1,,"Europe/Madrid",2
"est_4_47","47","LAVAPIES","",40.408510000000000,-3.700900000000000,"A","http://www.crtm.es",1,,"Europe/Madrid",2
"est_4_49","49","CALLAO","",40.420140000000000,-3.705660000000000,"A","http://www.crtm.es",1,,"Europe/Madrid",2
"est_4_5","5","ALVARADO","",40.450330000000000,-3.703310000000000,"A","http://www.crtm.es",1,,"Europe/Madrid",0
"est_4_50","50","PLAZA DE ESPAÑA","",40.423420000000000,-3.711200000000000,"A","http://www.crtm.es",1,,"Europe/Madrid",2
"est_4_51","51","VENTURA RODRIGUEZ","",40.427090000000000,-3.713410000000000,"A","http://www.crtm.es",1,,"Europe/Madrid",2
"est_4_52","52","ARGÜELLES","",40.430660000000000,-3.715960000000000,"A","http://www.crtm.es",1,,"Europe/Madrid",0
"est_4_57","57","ALONSO MARTINEZ","",40.427720000000000,-3.695940000000000,"A","http://www.crtm.es",1,,"Europe/Madrid",0
"est_4_58","58","COLON","",40.425420000000000,-3.691010000000000,"A","http://www.crtm.es",1,,"Europe/Madrid",0
"est_4_59","59","SERRANO","",40.425430000000000,-3.686630000000000,"A","http://www.crtm.es",1,,"Europe/Madrid",0
"est_4_6","6","CUATRO CAMINOS","",40.446970000000000,-3.703970000000000,"A","http://www.crtm.es",1,,"Europe/Madrid",2
"est_4_60","60","VELAZQUEZ","",40.425030000000000,-3.682920000000000,"A","http://www.crtm.es",1,,"Europe/Madrid",0
"est_4_62","62","LISTA","",40.429170000000000,-3.675410000000000,"A","http://www.crtm.es",1,,"Europe/Madrid",0
"est_4_63","63","DIEGO DE LEON","",40.434680000000000,-3.674950000000000,"A","http://www.crtm.es",1,,"Europe/Madrid",0
"est_4_65","65","PROSPERIDAD","",40.444190000000000,-3.674820000000000,"A","http://www.crtm.es",1,,"Europe/Madrid",0
"est_4_66","66","ALFONSO XIII","",40.448250000000000,-3.667910000000000,"A","http://www.crtm.es",1,,"Europe/Madrid",0
"est_4_67","67","AVENIDA DE LA PAZ","",40.453540000000000,-3.661180000000000,"A","http://www.crtm.es",1,,"Europe/Madrid",0
"est_4_68","68","ARTURO SORIA","",40.455830000000000,-3.656180000000000,"A","http://www.crtm.es",1,,"Europe/Madrid",0
"est_4_69","69","ESPERANZA","",40.459450000000000,-3.645820000000000,"A","http://www.crtm.es",1,,"Europe/Madrid",0
"est_4_7","7","RIOS ROSAS","",40.441980000000000,-3.701330000000000,"A","http://www.crtm.es",1,,"Europe/Madrid",0
"est_4_70","70","CANILLAS","",40.463810000000000,-3.635600000000000,"A","http://www.crtm.es",1,,"Europe/Madrid",2
"est_4_71","71","MAR DE CRISTAL","",40.469430000000000,-3.638320000000000,"A","http://www.crtm.es",1,,"Europe/Madrid",2
"est_4_72","72","SAN LORENZO","",40.474470000000000,-3.639580000000000,"A","http://www.crtm.es",1,,"Europe/Madrid",2
"est_4_73","73","PARQUE DE SANTA MARIA","",40.477110000000000,-3.645240000000000,"A","http://www.crtm.es",1,,"Europe/Madrid",2
"est_4_74","74","CANILLEJAS","",40.449420000000000,-3.608160000000000,"A","http://www.crtm.es",1,,"Europe/Madrid",0
"est_4_75","75","TORRE ARIAS","",40.443740000000000,-3.616990000000000,"A","http://www.crtm.es",1,,"Europe/Madrid",0
"est_4_76","76","SUANZES","",40.440850000000000,-3.626840000000000,"A","http://www.crtm.es",1,,"Europe/Madrid",0
"est_4_77","77","CIUDAD LINEAL","",40.438050000000000,-3.638160000000000,"A","http://www.crtm.es",1,,"Europe/Madrid",0
"est_4_78","78","PUEBLO NUEVO","",40.435690000000000,-3.642820000000000,"A","http://www.crtm.es",1,,"Europe/Madrid",0
"est_4_79","79","QUINTANA","",40.433580000000000,-3.647360000000000,"A","http://www.crtm.es",1,,"Europe/Madrid",0
"est_4_8","8","IGLESIA","",40.434920000000000,-3.698980000000000,"A","http://www.crtm.es",1,,"Europe/Madrid",2
"est_4_80","80","EL CARMEN","",40.431890000000000,-3.657570000000000,"A","http://www.crtm.es",1,,"Europe/Madrid",0
"est_4_83","83","NUÑEZ DE BALBOA","",40.432780000000000,-3.682580000000000,"A","http://www.crtm.es",1,,"Europe/Madrid",0
"est_4_84","84","RUBEN DARIO","",40.433160000000000,-3.689540000000000,"A","http://www.crtm.es",1,,"Europe/Madrid",0
"est_4_86","86","CHUECA","",40.422930000000000,-3.697620000000000,"A","http://www.crtm.es",1,,"Europe/Madrid",0
"est_4_9","9","BILBAO","",40.429060000000000,-3.702180000000000,"A","http://www.crtm.es",1,,"Europe/Madrid",0
"est_4_90","90","LA LATINA","",40.411280000000000,-3.708160000000000,"A","http://www.crtm.es",1,,"Europe/Madrid",0
"est_4_91","91","PUERTA DE TOLEDO","",40.407040000000000,-3.711050000000000,"A","http://www.crtm.es",1,,"Europe/Madrid",0
"est_4_93","93","PIRAMIDES","",40.402600000000000,-3.711380000000000,"A","http://www.crtm.es",1,,"Europe/Madrid",2
"est_4_94","94","MARQUES DE VADILLO","",40.397360000000000,-3.715960000000000,"A","http://www.crtm.es",1,,"Europe/Madrid",0
"est_4_95","95","URGEL","",40.393350000000000,-3.723600000000000,"A","http://www.crtm.es",1,,"Europe/Madrid",0
"est_4_96","96","OPORTO","",40.388460000000000,-3.731320000000000,"A","http://www.crtm.es",1,,"Europe/Madrid",0
"est_4_97","97","VISTA ALEGRE","",40.388850000000000,-3.739820000000000,"A","http://www.crtm.es",1,,"Europe/Madrid",0
"est_4_98","98","CARABANCHEL","",40.387830000000000,-3.744870000000000,"A","http://www.crtm.es",1,,"Europe/Madrid",0
"est_4_99","99","EUGENIA DE MONTIJO","",40.384390000000000,-3.751210000000000,"A","http://www.crtm.es",1,,"Europe/Madrid",2
"est_90_1","1","Aluche","Calle de Valmojado 293",40.385630000000000,-3.760850000000000,"A","http://www.crtm.es",1,,"Europe/Madrid",0
"est_90_13","13","Méndez Álvaro Estación Sur","Calle del Ombu 16",40.395380000000000,-3.678190000000000,"A","http://www.crtm.es",1,,"Europe/Madrid",0
"est_90_14","14","Intercambiador de Moncloa","Plaza de la Moncloa 1",40.435230000000000,-3.719190000000000,"A","http://www.crtm.es",1,,"Europe/Madrid",0
"est_90_18","18","Intercambiador de Príncipe Pío","Paseo de la Florida 2",40.421070000000000,-3.720370000000000,"A","http://www.crtm.es",1,,"Europe/Madrid",0
"est_90_21","21","Intercambiador de Plaza de Castilla","Paseo de la Castellana 189",40.466900000000000,-3.689200000000000,"A","http://www.crtm.es",1,,"Europe/Madrid",0
"est_90_25","25","Chamartín","Calle de Agustín de Foxá 40",40.472100000000000,-3.682690000000000,"A","http://www.crtm.es",1,,"Europe/Madrid",0
"est_90_33","33","Aeropuerto T4","Ctra de Alcobendas a Barajas SN",40.491760000000000,-3.593560000000000,"A","http://www.crtm.es",1,,"Europe/Madrid",0
"est_90_34","34","Aeropuerto T1 - T2 - T3","Avda de la Hispanidad SN",40.468640000000000,-3.569650000000000,"A","http://www.crtm.es",1,,"Europe/Madrid",0
"est_90_36","36","Intercambiador de Plaza Elíptica","Calle  Vía Lusitana 2",40.384600000000000,-3.718480000000000,"A","http://www.crtm.es",1,,"Europe/Madrid",0
"est_90_4","4","Intercambiador de Avenida de América","Avda de América 9 A",40.438030000000000,-3.676690000000000,"A","http://www.crtm.es",1,,"Europe/Madrid",0
"est_90_54","54","Atocha-Renfe","Avda de la Ciudad de Barcelona 2 B",40.406590000000000,-3.689440000000000,"A","http://www.crtm.es",1,,"Europe/Madrid",0
"est_90_58","58","Puerta del Sol","Plaza de la Puerta del Sol 6",40.416880000000000,-3.703310000000000,"A","http://www.crtm.es",1,,"Europe/Madrid",0
"est_90_71","71","Nuevos Ministerios","Calle de Raimundo Fernández Villaverde 67",40.446620000000000,-3.692460000000000,"A","http://www.crtm.es",1,,"Europe/Madrid",0
"par_4_1","1","PLAZA DE CASTILLA","",40.466900000000000,-3.689170000000000,"A","http://www.crtm.es",0,"est_90_21",,0
"par_4_10","10","TRIBUNAL","",40.426190000000000,-3.701100000000000,"A","http://www.crtm.es",0,,"Europe/Madrid",0
"par_4_100","100","ALUCHE","",40.385630000000000,-3.760800000000000,"A","http://www.crtm.es",0,"est_90_1",,2
"par_4_101","101","EMPALME","",40.390570000000000,-3.765350000000000,"A","http://www.crtm.es",0,,"Europe/Madrid",2
"par_4_102","102","CAMPAMENTO","",40.394810000000000,-3.768130000000000,"A","http://www.crtm.es",0,,"Europe/Madrid",0
"par_4_103","103","CASA DE CAMPO","",40.403240000000000,-3.761010000000000,"A","http://www.crtm.es",0,,"Europe/Madrid",2
"par_4_104","104","LAGUNA","",40.399230000000000,-3.744290000000000,"A","http://www.crtm.es",0,,"Europe/Madrid",0
"par_4_105","105","CARPETANA","",40.392700000000000,-3.740990000000000,"A","http://www.crtm.es",0,,"Europe/Madrid",0
"par_4_106","106","OPORTO","",40.388470000000000,-3.731260000000000,"A","http://www.crtm.es",0,"est_4_96",,0
"par_4_107","107","OPAÑEL","",40.386900000000000,-3.723130000000000,"A","http://www.crtm.es",0,,"Europe/Madrid",0
"par_4_108","108","PLAZA ELIPTICA","",40.384600000000000,-3.718370000000000,"A","http://www.crtm.es",0,"est_90_36",,2
"par_4_109","109","USERA","",40.387100000000000,-3.706900000000000,"A","http://www.crtm.es",0,,"Europe/Madrid",0
"par_4_11","11","GRAN VIA","",40.420010000000000,-3.701800000000000,"A","http://www.crtm.es",0,,"Europe/Madrid",0
"par_4_110","110","LEGAZPI","",40.391160000000000,-3.695050000000000,"A","http://www.crtm.es",0,"est_4_43",,2
"par_4_111","111","MENDEZ ALVARO","",40.395380000000000,-3.678140000000000,"A","http://www.crtm.es",0,"est_90_13",,0
"par_4_112","112","PACIFICO","",40.402070000000000,-3.673860000000000,"A","http://www.crtm.es",0,"est_4_18",,0
"par_4_113","113","CONDE DE CASAL","",40.406970000000000,-3.670410000000000,"A","http://www.crtm.es",0,,"Europe/Madrid",2
"par_4_114","114","SAINZ DE BARANDA","",40.415070000000000,-3.669510000000000,"A","http://www.crtm.es",0,,"Europe/Madrid",0
"par_4_115","115","ODONNELL","",40.422890000000000,-3.668600000000000,"A","http://www.crtm.es",0,,"Europe/Madrid",0
"par_4_116","116","MANUEL BECERRA","",40.427900000000000,-3.669210000000000,"A","http://www.crtm.es",0,"est_4_29",,0
"par_4_117","117","DIEGO DE LEON","",40.432950000000000,-3.672940000000000,"A","http://www.crtm.es",0,"est_4_63",,0
"par_4_118","118","AVENIDA DE AMERICA","",40.438040000000000,-3.676580000000000,"A","http://www.crtm.es",0,"est_90_4",,0
"par_4_119","119","REPUBLICA ARGENTINA","",40.443790000000000,-3.684060000000000,"A","http://www.crtm.es",0,,"Europe/Madrid",0
"par_4_12","12","SOL","",40.416880000000000,-3.703260000000000,"A","http://www.crtm.es",0,"est_90_58",,1
"par_4_120","120","NUEVOS MINISTERIOS","",40.446620000000000,-3.692410000000000,"A","http://www.crtm.es",0,"est_90_71",,2
"par_4_121","121","CUATRO CAMINOS","",40.446970000000000,-3.703870000000000,"A","http://www.crtm.es",0,"est_4_6",,2
"par_4_122","122","GUZMAN EL BUENO","",40.446370000000000,-3.712290000000000,"A","http://www.crtm.es",0,,"Europe/Madrid",2
"par_4_123","123","METROPOLITANO","",40.446440000000000,-3.719430000000000,"A","http://www.crtm.es",0,,"Europe/Madrid",0
"par_4_124","124","CIUDAD UNIVERSITARIA","",40.443560000000000,-3.726780000000000,"A","http://www.crtm.es",0,,"Europe/Madrid",2
"par_4_125","125","MONCLOA","",40.434970000000000,-3.719450000000000,"A","http://www.crtm.es",0,"est_90_14",,2
"par_4_126","126","ARGÜELLES","",40.430530000000000,-3.715960000000000,"A","http://www.crtm.es",0,"est_4_52",,2
"par_4_127","127","PRINCIPE PIO","",40.421070000000000,-3.720320000000000,"A","http://www.crtm.es",0,"est_90_18",,1
"par_4_128","128","PUERTA DEL ANGEL","",40.413900000000000,-3.727240000000000,"A","http://www.crtm.es",0,,"Europe/Madrid",0
"par_4_129","129","ALTO DE EXTREMADURA","",40.409930000000000,-3.738940000000000,"A","http://www.crtm.es",0,,"Europe/Madrid",0
"par_4_13","13","TIRSO DE MOLINA","",40.412350000000000,-3.704660000000000,"A","http://www.crtm.es",0,,"Europe/Madrid",0
"par_4_130","130","LUCERO","",40.405100000000000,-3.745340000000000,"A","http://www.crtm.es",0,,"Europe/Madrid",2
"par_4_132","132","LAS MUSAS","",40.432990000000000,-3.607880000000000,"A","http://www.crtm.es",0,,"Europe/Madrid",0
"par_4_133","133","SAN BLAS","",40.427990000000000,-3.615470000000000,"A","http://www.crtm.es",0,,"Europe/Madrid",0
"par_4_134","134","SIMANCAS","",40.427990000000000,-3.625720000000000,"A","http://www.crtm.es",0,,"Europe/Madrid",0
"par_4_135","135","GARCIA NOBLEJAS","",40.428420000000000,-3.633300000000000,"A","http://www.crtm.es",0,,"Europe/Madrid",0
"par_4_136","136","ASCAO","",40.430210000000000,-3.641060000000000,"A","http://www.crtm.es",0,,"Europe/Madrid",0
"par_4_137","137","PUEBLO NUEVO","",40.435660000000000,-3.642820000000000,"A","http://www.crtm.es",0,"est_4_78",,0
"par_4_138","138","BARRIO DE LA CONCEPCION","",40.439100000000000,-3.652000000000000,"A","http://www.crtm.es",0,,"Europe/Madrid",0
"par_4_139","139","PARQUE DE LAS AVENIDAS","",40.439450000000000,-3.662970000000000,"A","http://www.crtm.es",0,,"Europe/Madrid",0
"par_4_14","14","ANTON MARTIN","",40.412460000000000,-3.699370000000000,"A","http://www.crtm.es",0,,"Europe/Madrid",0
"par_4_140","140","CARTAGENA","",40.439340000000000,-3.672150000000000,"A","http://www.crtm.es",0,,"Europe/Madrid",0
"par_4_141","141","AVENIDA DE AMERICA","",40.438040000000000,-3.676530000000000,"A","http://www.crtm.es",0,"est_90_4",,0
"par_4_142","142","GREGORIO MARAÑON","",40.438250000000000,-3.691480000000000,"A","http://www.crtm.es",0,,"Europe/Madrid",2
"par_4_143","143","ALONSO CANO","",40.438380000000000,-3.699250000000000,"A","http://www.crtm.es",0,,"Europe/Madrid",2
"par_4_144","144","CANAL","",40.438700000000000,-3.704890000000000,"A","http://www.crtm.es",0,"est_4_41",,2
"par_4_145","145","ISLAS FILIPINAS","",40.439070000000000,-3.713730000000000,"A","http://www.crtm.es",0,,"Europe/Madrid",2
"par_4_146","146","GUZMAN EL BUENO","",40.446330000000000,-3.712290000000000,"A","http://www.crtm.es",0,"est_4_122",,2
"par_4_147","147","FRANCOS RODRIGUEZ","",40.456480000000000,-3.712390000000000,"A","http://www.crtm.es",0,,"Europe/Madrid",2
"par_4_148","148","VALDEZARZA","",40.464820000000000,-3.715970000000000,"A","http://www.crtm.es",0,,"Europe/Madrid",2
"par_4_149","149","ANTONIO MACHADO","",40.470220000000000,-3.717690000000000,"A","http://www.crtm.es",0,,"Europe/Madrid",2
"par_4_15","15","ATOCHA","",40.408850000000000,-3.692490000000000,"A","http://www.crtm.es",0,,"Europe/Madrid",0
"par_4_150","150","PEÑAGRANDE","",40.475920000000000,-3.715820000000000,"A","http://www.crtm.es",0,,"Europe/Madrid",0
"par_4_151","151","AVDA. DE LA ILUSTRACION","",40.480100000000000,-3.718400000000000,"A","http://www.crtm.es",0,,"Europe/Madrid",2
"par_4_152","152","LACOMA","",40.485020000000000,-3.723050000000000,"A","http://www.crtm.es",0,,"Europe/Madrid",2
"par_4_154","154","PITIS","",40.495110000000000,-3.725890000000000,"A","http://www.crtm.es",0,,"Europe/Madrid",2
"par_4_155","155","NUEVOS MINISTERIOS","",40.446550000000000,-3.692410000000000,"A","http://www.crtm.es",0,"est_90_71",,2
"par_4_156","156","COLOMBIA","",40.456340000000000,-3.676820000000000,"A","http://www.crtm.es",0,,"Europe/Madrid",2
"par_4_157","157","MAR DE CRISTAL","",40.469380000000000,-3.638320000000000,"A","http://www.crtm.es",0,"est_4_71",,2
"par_4_158","158","FERIA DE MADRID","",40.463890000000000,-3.616200000000000,"A","http://www.crtm.es",0,,"Europe/Madrid",2
"par_4_159","159","AEROPUERTO T1 T2 T3","",40.468640000000000,-3.569540000000000,"A","http://www.crtm.es",0,"est_90_34",,2
"par_4_16","16","ATOCHA-RENFE","",40.406590000000000,-3.689380000000000,"A","http://www.crtm.es",0,"est_90_54",,2
"par_4_160","160","BARAJAS","",40.475770000000000,-3.582530000000000,"A","http://www.crtm.es",0,,"Europe/Madrid",2
"par_4_161","161","HERRERA ORIA","",40.484660000000000,-3.707510000000000,"A","http://www.crtm.es",0,,"Europe/Madrid",0
"par_4_162","162","BARRIO DEL PILAR","",40.476890000000000,-3.703160000000000,"A","http://www.crtm.es",0,,"Europe/Madrid",0
"par_4_163","163","VENTILLA","",40.469440000000000,-3.695880000000000,"A","http://www.crtm.es",0,,"Europe/Madrid",0
"par_4_164","164","PLAZA DE CASTILLA","",40.466900000000000,-3.689130000000000,"A","http://www.crtm.es",0,"est_90_21",,0
"par_4_165","165","DUQUE DE PASTRANA","",40.467630000000000,-3.679170000000000,"A","http://www.crtm.es",0,,"Europe/Madrid",0
"par_4_166","166","PIO XII","",40.463000000000000,-3.675790000000000,"A","http://www.crtm.es",0,,"Europe/Madrid",0
"par_4_167","167","COLOMBIA","",40.457490000000000,-3.676940000000000,"A","http://www.crtm.es",0,"est_4_156",,2
"par_4_168","168","CONCHA ESPINA","",40.451450000000000,-3.677380000000000,"A","http://www.crtm.es",0,,"Europe/Madrid",0
"par_4_169","169","CRUZ DEL RAYO","",40.444270000000000,-3.678210000000000,"A","http://www.crtm.es",0,,"Europe/Madrid",0
"par_4_17","17","MENENDEZ PELAYO","",40.404450000000000,-3.680980000000000,"A","http://www.crtm.es",0,,"Europe/Madrid",0
"par_4_170","170","AVENIDA DE AMERICA","",40.438040000000000,-3.676470000000000,"A","http://www.crtm.es",0,"est_90_4",,0
"par_4_171","171","NUÑEZ DE BALBOA","",40.430130000000000,-3.679360000000000,"A","http://www.crtm.es",0,"est_4_83",,0
"par_4_172","172","PRINCIPE DE VERGARA","",40.424180000000000,-3.680240000000000,"A","http://www.crtm.es",0,"est_4_31",,0
"par_4_173","173","IBIZA","",40.418390000000000,-3.678580000000000,"A","http://www.crtm.es",0,,"Europe/Madrid",0
"par_4_174","174","SAINZ DE BARANDA","",40.415030000000000,-3.669510000000000,"A","http://www.crtm.es",0,"est_4_114",,0
"par_4_175","175","ESTRELLA","",40.411470000000000,-3.661790000000000,"A","http://www.crtm.es",0,,"Europe/Madrid",0
"par_4_176","176","VINATEROS","",40.410240000000000,-3.652730000000000,"A","http://www.crtm.es",0,,"Europe/Madrid",0
"par_4_177","177","ARTILLEROS","",40.405220000000000,-3.641810000000000,"A","http://www.crtm.es",0,,"Europe/Madrid",0
"par_4_178","178","PAVONES","",40.400510000000000,-3.635120000000000,"A","http://www.crtm.es",0,,"Europe/Madrid",0
"par_4_179","179","VALDEBERNARDO","",40.400050000000000,-3.621560000000000,"A","http://www.crtm.es",0,,"Europe/Madrid",2
"par_4_18","18","PACIFICO","",40.401260000000000,-3.675140000000000,"A","http://www.crtm.es",0,,"Europe/Madrid",0
"par_4_180","180","VICALVARO","",40.404220000000000,-3.608860000000000,"A","http://www.crtm.es",0,,"Europe/Madrid",2
"par_4_181","181","SAN CIPRIANO","",40.403810000000000,-3.602390000000000,"A","http://www.crtm.es",0,,"Europe/Madrid",2
"par_4_182","182","PUERTA DE ARGANDA","",40.401320000000000,-3.595980000000000,"A","http://www.crtm.es",0,,"Europe/Madrid",2
"par_4_183","183","RIVAS URBANIZACIONES","",40.366770000000000,-3.547280000000000,"B1","http://www.crtm.es",0,,"Europe/Madrid",2
"par_4_184","184","RIVAS VACIAMADRID","",40.328370000000000,-3.520600000000000,"B2","http://www.crtm.es",0,,"Europe/Madrid",2
"par_4_185","185","LA POVEDA","",40.319020000000000,-3.477450000000000,"B3","http://www.crtm.es",0,,"Europe/Madrid",2
"par_4_186","186","ARGANDA DEL REY","",40.303670000000000,-3.447520000000000,"B3","http://www.crtm.es",0,,"Europe/Madrid",2
"par_4_187","187","FUENCARRAL","",40.495090000000000,-3.692830000000000,"A","http://www.crtm.es",0,,"Europe/Madrid",0
"par_4_188","188","BEGOÑA","",40.480410000000000,-3.685850000000000,"A","http://www.crtm.es",0,,"Europe/Madrid",0
"par_4_189","189","CHAMARTIN","",40.472100000000000,-3.682590000000000,"A","http://www.crtm.es",0,"est_90_25",,2
"par_4_19","19","PUENTE DE VALLECAS","",40.398190000000000,-3.669060000000000,"A","http://www.crtm.es",0,,"Europe/Madrid",0
"par_4_190","190","PLAZA DE CASTILLA","",40.466900000000000,-3.689090000000000,"A","http://www.crtm.es",0,"est_90_21",,0
"par_4_191","191","CUZCO","",40.458420000000000,-3.689850000000000,"A","http://www.crtm.es",0,,"Europe/Madrid",0
"par_4_192","192","SANTIAGO BERNABEU","",40.451590000000000,-3.690380000000000,"A","http://www.crtm.es",0,,"Europe/Madrid",0
"par_4_193","193","NUEVOS MINISTERIOS","",40.446590000000000,-3.692410000000000,"A","http://www.crtm.es",0,"est_90_71",,2
"par_4_194","194","GREGORIO MARAÑON","",40.437530000000000,-3.691270000000000,"A","http://www.crtm.es",0,"est_4_142",,2
"par_4_195","195","ALONSO MARTINEZ","",40.428530000000000,-3.696430000000000,"A","http://www.crtm.es",0,"est_4_57",,0
"par_4_196","196","TRIBUNAL","",40.426000000000000,-3.702080000000000,"A","http://www.crtm.es",0,"est_4_10",,0
"par_4_197","197","PLAZA DE ESPAÑA","",40.424090000000000,-3.709700000000000,"A","http://www.crtm.es",0,"est_4_50",,2
"par_4_198","198","PRINCIPE PIO","",40.421030000000000,-3.720330000000000,"A","http://www.crtm.es",0,"est_90_18",,1
"par_4_199","199","LAGO","",40.416410000000000,-3.735630000000000,"A","http://www.crtm.es",0,,"Europe/Madrid",2
"par_4_2","2","VALDEACEDERAS","",40.464420000000000,-3.695060000000000,"A","http://www.crtm.es",0,,"Europe/Madrid",0
"par_4_20","20","NUEVA NUMANCIA","",40.395540000000000,-3.664140000000000,"A","http://www.crtm.es",0,,"Europe/Madrid",0
"par_4_200","200","BATAN","",40.407860000000000,-3.753110000000000,"A","http://www.crtm.es",0,,"Europe/Madrid",2
"par_4_201","201","CASA DE CAMPO","",40.403210000000000,-3.761010000000000,"A","http://www.crtm.es",0,"est_4_103",,2
"par_4_202","202","COLONIA JARDIN","",40.396980000000000,-3.774620000000000,"A","http://www.crtm.es",0,,"Europe/Madrid",2
"par_4_203","203","CUATRO VIENTOS","",40.377710000000000,-3.791520000000000,"A","http://www.crtm.es",0,,"Europe/Madrid",2
"par_4_204","204","JOAQUIN VILUMBRALES","",40.349850000000000,-3.807200000000000,"B1","http://www.crtm.es",0,,"Europe/Madrid",2
"par_4_205","205","PUERTA DEL SUR","",40.345240000000000,-3.812110000000000,"B1","http://www.crtm.es",0,,"Europe/Madrid",2
"par_4_206","206","PLAZA ELIPTICA","",40.384600000000000,-3.718250000000000,"A","http://www.crtm.es",0,"est_90_36",,2
"par_4_207","207","ABRANTES","",40.380830000000000,-3.727900000000000,"A","http://www.crtm.es",0,,"Europe/Madrid",2
"par_4_208","208","PAN BENDITO","",40.375870000000000,-3.734170000000000,"A","http://www.crtm.es",0,,"Europe/Madrid",2
"par_4_209","209","PUERTA DEL SUR","",40.345430000000000,-3.812490000000000,"B1","http://www.crtm.es",0,"est_4_205",,2
"par_4_21","21","PORTAZGO","",40.392660000000000,-3.658680000000000,"A","http://www.crtm.es",0,,"Europe/Madrid",0
"par_4_210","210","PARQUE LISBOA","",40.349690000000000,-3.821200000000000,"B1","http://www.crtm.es",0,,"Europe/Madrid",2
"par_4_211","211","ALCORCON CENTRAL","",40.350080000000000,-3.831780000000000,"B1","http://www.crtm.es",0,,"Europe/Madrid",2
"par_4_212","212","PARQUE OESTE","",40.345890000000000,-3.849340000000000,"B1","http://www.crtm.es",0,,"Europe/Madrid",2
"par_4_213","213","UNIVERSIDAD REY JUAN CARLOS","",40.335120000000000,-3.872180000000000,"B2","http://www.crtm.es",0,,"Europe/Madrid",2
"par_4_214","214","MOSTOLES CENTRAL","",40.328500000000000,-3.863540000000000,"B2","http://www.crtm.es",0,,"Europe/Madrid",2
"par_4_215","215","PRADILLO","",40.321680000000000,-3.864890000000000,"B2","http://www.crtm.es",0,,"Europe/Madrid",2
"par_4_216","216","HOSPITAL DE MOSTOLES","",40.316520000000000,-3.874710000000000,"B2","http://www.crtm.es",0,,"Europe/Madrid",2
"par_4_217","217","MANUELA MALASAÑA","",40.309030000000000,-3.864020000000000,"B2","http://www.crtm.es",0,,"Europe/Madrid",2
"par_4_218","218","LORANCA","",40.296810000000000,-3.837680000000000,"B2","http://www.crtm.es",0,,"Europe/Madrid",2
"par_4_219","219","HOSPITAL DE FUENLABRADA","",40.285760000000000,-3.816420000000000,"B2","http://www.crtm.es",0,,"Europe/Madrid",2
"par_4_22","22","BUENOS AIRES","",40.391560000000000,-3.653910000000000,"A","http://www.crtm.es",0,,"Europe/Madrid",0
"par_4_220","220","PARQUE EUROPA","",40.285180000000000,-3.806320000000000,"B2","http://www.crtm.es",0,,"Europe/Madrid",2
"par_4_221","221","FUENLABRADA CENTRAL","",40.282680000000000,-3.798910000000000,"B2","http://www.crtm.es",0,,"Europe/Madrid",2
"par_4_222","222","PARQUE DE LOS ESTADOS","",40.286840000000000,-3.786970000000000,"B2","http://www.crtm.es",0,,"Europe/Madrid",2
"par_4_223","223","ARROYO CULEBRO","",40.288740000000000,-3.756820000000000,"B1","http://www.crtm.es",0,,"Europe/Madrid",2
"par_4_224","224","CONSERVATORIO","",40.293240000000000,-3.745760000000000,"B1","http://www.crtm.es",0,,"Europe/Madrid",2
"par_4_225","225","ALONSO DE MENDOZA","",40.300810000000000,-3.736640000000000,"B1","http://www.crtm.es",0,,"Europe/Madrid",2
"par_4_226","226","GETAFE CENTRAL","",40.309930000000000,-3.734030000000000,"B1","http://www.crtm.es",0,,"Europe/Madrid",2
"par_4_227","227","JUAN DE LA CIERVA","",40.311800000000000,-3.722240000000000,"B1","http://www.crtm.es",0,,"Europe/Madrid",2
"par_4_228","228","EL CASAR","",40.318620000000000,-3.709850000000000,"B1","http://www.crtm.es",0,,"Europe/Madrid",2
"par_4_229","229","LOS ESPARTALES","",40.324230000000000,-3.718200000000000,"B1","http://www.crtm.es",0,,"Europe/Madrid",2
"par_4_23","23","ALTO DEL ARENAL","",40.389770000000000,-3.645220000000000,"A","http://www.crtm.es",0,,"Europe/Madrid",2
"par_4_230","230","EL BERCIAL","",40.329070000000000,-3.729630000000000,"B1","http://www.crtm.es",0,,"Europe/Madrid",2
"par_4_231","231","EL CARRASCAL","",40.336640000000000,-3.740180000000000,"B1","http://www.crtm.es",0,,"Europe/Madrid",2
"par_4_232","232","JULIAN BESTEIRO","",40.334750000000000,-3.752660000000000,"B1","http://www.crtm.es",0,,"Europe/Madrid",2
"par_4_233","233","CASA DEL RELOJ","",40.326600000000000,-3.759420000000000,"B1","http://www.crtm.es",0,,"Europe/Madrid",2
"par_4_234","234","HOSPITAL SEVERO OCHOA","",40.321770000000000,-3.767970000000000,"B1","http://www.crtm.es",0,,"Europe/Madrid",2
"par_4_235","235","LEGANES CENTRAL","",40.328990000000000,-3.771540000000000,"B1","http://www.crtm.es",0,,"Europe/Madrid",2
"par_4_236","236","SAN NICASIO","",40.336160000000000,-3.775870000000000,"B1","http://www.crtm.es",0,,"Europe/Madrid",2
"par_4_237","237","OPERA","",40.418090000000000,-3.709280000000000,"A","http://www.crtm.es",0,"est_4_36",,0
"par_4_238","238","PRINCIPE PIO","",40.420990000000000,-3.720330000000000,"A","http://www.crtm.es",0,"est_90_18",,1
"par_4_24","24","MIGUEL HERNANDEZ","",40.387320000000000,-3.639510000000000,"A","http://www.crtm.es",0,,"Europe/Madrid",2
"par_4_25","25","SIERRA DE GUADALUPE","",40.382160000000000,-3.624720000000000,"A","http://www.crtm.es",0,,"Europe/Madrid",2
"par_4_252","252","ALAMEDA DE OSUNA","",40.457790000000000,-3.587520000000000,"A","http://www.crtm.es",0,,"Europe/Madrid",2
"par_4_253","253","EL CAPRICHO","",40.453470000000000,-3.594010000000000,"A","http://www.crtm.es",0,,"Europe/Madrid",2
"par_4_254","254","SAN FRANCISCO","",40.373600000000000,-3.739100000000000,"A","http://www.crtm.es",0,,"Europe/Madrid",2
"par_4_255","255","CARABANCHEL ALTO","",40.372000000000000,-3.751910000000000,"A","http://www.crtm.es",0,,"Europe/Madrid",2
"par_4_256","256","LA PESETA","",40.364220000000000,-3.756900000000000,"A","http://www.crtm.es",0,,"Europe/Madrid",2
"par_4_257","257","AVIACION ESPAÑOLA","",40.383640000000000,-3.783920000000000,"A","http://www.crtm.es",0,,"Europe/Madrid",2
"par_4_258","258","PINAR DEL REY","",40.468000000000000,-3.648670000000000,"A","http://www.crtm.es",0,,"Europe/Madrid",2
"par_4_259","259","ARGANZUELA-PLANETARIO","",40.393100000000000,-3.688640000000000,"A","http://www.crtm.es",0,,"Europe/Madrid",2
"par_4_26","26","VILLA DE VALLECAS","",40.379600000000000,-3.621300000000000,"A","http://www.crtm.es",0,,"Europe/Madrid",2
"par_4_260","260","LA ELIPA","",40.426620000000000,-3.650520000000000,"A","http://www.crtm.es",0,,"Europe/Madrid",2
"par_4_261","261","CHAMARTIN","",40.472030000000000,-3.682590000000000,"A","http://www.crtm.es",0,"est_90_25",,2
"par_4_262","262","BAMBU","",40.476820000000000,-3.676370000000000,"A","http://www.crtm.es",0,,"Europe/Madrid",2
"par_4_263","263","PINAR DE CHAMARTIN","",40.480140000000000,-3.666800000000000,"A","http://www.crtm.es",0,,"Europe/Madrid",2
"par_4_264","264","HORTALEZA","",40.475370000000000,-3.652570000000000,"A","http://www.crtm.es",0,,"Europe/Madrid",2
"par_4_265","265","MANOTERAS","",40.476870000000000,-3.662900000000000,"A","http://www.crtm.es",0,,"Europe/Madrid",2
"par_4_266","266","PINAR DE CHAMARTIN","",40.480140000000000,-3.666760000000000,"A","http://www.crtm.es",0,"est_4_263",,2
"par_4_267","267","ALMENDRALES","",40.384090000000000,-3.697880000000000,"A","http://www.crtm.es",0,,"Europe/Madrid",2
"par_4_268","268","HOSPITAL 12 DE OCTUBRE","",40.375030000000000,-3.695850000000000,"A","http://www.crtm.es",0,,"Europe/Madrid",2
"par_4_269","269","SAN FERMIN-ORCASUR","",40.369990000000000,-3.694180000000000,"A","http://www.crtm.es",0,,"Europe/Madrid",2
"par_4_27","27","CONGOSTO","",40.372380000000000,-3.618840000000000,"A","http://www.crtm.es",0,,"Europe/Madrid",2
"par_4_270","270","CIUDAD DE LOS ANGELES","",40.359590000000000,-3.693630000000000,"A","http://www.crtm.es",0,,"Europe/Madrid",2
"par_4_271","271","VILLAVERDE BAJO-CRUCE","",40.350890000000000,-3.692650000000000,"A","http://www.crtm.es",0,,"Europe/Madrid",2
"par_4_272","272","SAN CRISTOBAL","",40.341540000000000,-3.693180000000000,"A","http://www.crtm.es",0,,"Europe/Madrid",2
"par_4_273","273","VILLAVERDE ALTO","",40.341230000000000,-3.711990000000000,"A","http://www.crtm.es",0,,"Europe/Madrid",2
"par_4_274","274","TRES OLIVOS","",40.501200000000000,-3.695200000000000,"A","http://www.crtm.es",0,,"Europe/Madrid",2
"par_4_275","275","MONTECARMELO","",40.505250000000000,-3.695750000000000,"A","http://www.crtm.es",0,,"Europe/Madrid",2
"par_4_276","276","LAS TABLAS","",40.508330000000000,-3.669440000000000,"A","http://www.crtm.es",0,,"Europe/Madrid",2
"par_4_277","277","RONDA DE LA COMUNICACION","",40.515530000000000,-3.662770000000000,"A","http://www.crtm.es",0,,"Europe/Madrid",2
"par_4_278","278","LA GRANJA","",40.527600000000000,-3.658590000000000,"B1","http://www.crtm.es",0,,"Europe/Madrid",2
"par_4_279","279","LA MORALEJA","",40.531960000000000,-3.635560000000000,"B1","http://www.crtm.es",0,,"Europe/Madrid",2
"par_4_28","28","VENTAS","",40.430880000000000,-3.663660000000000,"A","http://www.crtm.es",0,,"Europe/Madrid",0
"par_4_280","280","MARQUES DE LA VALDAVIA","",40.541020000000000,-3.637380000000000,"B1","http://www.crtm.es",0,,"Europe/Madrid",2
"par_4_281","281","MANUEL DE FALLA","",40.550480000000000,-3.646880000000000,"B1","http://www.crtm.es",0,,"Europe/Madrid",2
"par_4_282","282","BAUNATAL","",40.554420000000000,-3.635130000000000,"B1","http://www.crtm.es",0,,"Europe/Madrid",2
"par_4_283","283","REYES CATOLICOS","",40.550370000000000,-3.623400000000000,"B1","http://www.crtm.es",0,,"Europe/Madrid",2
"par_4_284","284","HOSPITAL INFANTA SOFÍA","",40.559770000000000,-3.611450000000000,"B1","http://www.crtm.es",0,,"Europe/Madrid",2
"par_4_285","285","AEROPUERTO T4","",40.491770000000000,-3.593250000000000,"A","http://www.crtm.es",0,"est_90_33",,2
"par_4_286","286","ESTADIO METROPOLITANO","",40.433390000000000,-3.600150000000000,"A","http://www.crtm.es",0,,"Europe/Madrid",2
"par_4_287","287","BARRIO DEL PUERTO","",40.422500000000000,-3.569190000000000,"B1","http://www.crtm.es",0,,"Europe/Madrid",2
"par_4_288","288","COSLADA CENTRAL","",40.423740000000000,-3.561190000000000,"B1","http://www.crtm.es",0,,"Europe/Madrid",2
"par_4_289","289","LA RAMBLA","",40.425140000000000,-3.547920000000000,"B1","http://www.crtm.es",0,,"Europe/Madrid",2
"par_4_29","29","MANUEL BECERRA","",40.427900000000000,-3.669260000000000,"A","http://www.crtm.es",0,,"Europe/Madrid",0
"par_4_290","290","SAN FERNANDO","",40.424410000000000,-3.535410000000000,"B1","http://www.crtm.es",0,,"Europe/Madrid",2
"par_4_291","291","JARAMA","",40.422950000000000,-3.525490000000000,"B1","http://www.crtm.es",0,,"Europe/Madrid",2
"par_4_292","292","HENARES","",40.417770000000000,-3.527180000000000,"B1","http://www.crtm.es",0,,"Europe/Madrid",2
"par_4_293","293","LA GAVIA","",40.370190000000000,-3.613460000000000,"A","http://www.crtm.es",0,,"Europe/Madrid",2
"par_4_294","294","LAS SUERTES","",40.363230000000000,-3.599530000000000,"A","http://www.crtm.es",0,,"Europe/Madrid",2
"par_4_295","295","VALDECARROS","",40.360070000000000,-3.593160000000000,"A","http://www.crtm.es",0,,"Europe/Madrid",2
"par_4_296","296","HOSPITAL DEL HENARES","",40.417610000000000,-3.534530000000000,"B1","http://www.crtm.es",0,,"Europe/Madrid",2
"par_4_3","3","TETUAN","",40.460550000000000,-3.698250000000000,"A","http://www.crtm.es",0,,"Europe/Madrid",0
"par_4_30","30","GOYA","",40.424550000000000,-3.675910000000000,"A","http://www.crtm.es",0,,"Europe/Madrid",2
"par_4_300","300","RIVAS FUTURA","",40.341340000000000,-3.524790000000000,"B1","http://www.crtm.es",0,,"Europe/Madrid",2
"par_4_305","305","LA FORTUNA","",40.357950000000000,-3.777830000000000,,"http://www.crtm.es",0,,"Europe/Madrid",0
"par_4_31","31","PRINCIPE DE VERGARA","",40.422940000000000,-3.680120000000000,"A","http://www.crtm.es",0,,"Europe/Madrid",0
"par_4_32","32","RETIRO","",40.420310000000000,-3.686240000000000,"A","http://www.crtm.es",0,,"Europe/Madrid",0
"par_4_322","322","LA ALMUDENA","",40.423610000000000,-3.639140000000000,,"http://www.crtm.es",0,,"Europe/Madrid",0
"par_4_323","323","ALSACIA","",40.418290000000000,-3.623510000000000,,"http://www.crtm.es",0,,"Europe/Madrid",0
"par_4_324","324","AVENIDA DE GUADALAJARA","",40.422390000000000,-3.612060000000000,"A","http://www.crtm.es",0,,"Europe/Madrid",0
"par_4_325","325","LAS ROSAS","",40.423750000000000,-3.603310000000000,"A","http://www.crtm.es",0,,"Europe/Madrid",0
"par_4_326","326","MIRASIERRA","",40.491100000000000,-3.716340000000000,,"http://www.crtm.es",0,,"Europe/Madrid",0
"par_4_33","33","BANCO DE ESPAÑA","",40.419220000000000,-3.694970000000000,"A","http://www.crtm.es",0,,"Europe/Madrid",0
"par_4_34","34","SEVILLA","",40.418050000000000,-3.699250000000000,"A","http://www.crtm.es",0,,"Europe/Madrid",0
"par_4_345","345","PACO DE LUCIA","",40.499650000000000,-3.709080000000000,,"http://www.crtm.es",0,,"Europe/Madrid",0
"par_4_35","35","SOL","",40.416850000000000,-3.703260000000000,"A","http://www.crtm.es",0,"est_90_58",,1
"par_4_36","36","OPERA","",40.418090000000000,-3.709420000000000,"A","http://www.crtm.es",0,,"Europe/Madrid",0
"par_4_37","37","SANTO DOMINGO","",40.421320000000000,-3.707960000000000,"A","http://www.crtm.es",0,,"Europe/Madrid",0
"par_4_38","38","NOVICIADO","",40.424840000000000,-3.707420000000000,"A","http://www.crtm.es",0,,"Europe/Madrid",0
"par_4_39","39","SAN BERNARDO","",40.430010000000000,-3.705570000000000,"A","http://www.crtm.es",0,,"Europe/Madrid",0
"par_4_4","4","ESTRECHO","",40.454290000000000,-3.703020000000000,"A","http://www.crtm.es",0,,"Europe/Madrid",0
"par_4_40","40","QUEVEDO","",40.433220000000000,-3.704330000000000,"A","http://www.crtm.es",0,,"Europe/Madrid",0
"par_4_41","41","CANAL","",40.438410000000000,-3.704330000000000,"A","http://www.crtm.es",0,,"Europe/Madrid",2
"par_4_42","42","CUATRO CAMINOS","",40.446970000000000,-3.703920000000000,"A","http://www.crtm.es",0,"est_4_6",,2
"par_4_43","43","LEGAZPI","",40.391160000000000,-3.695110000000000,"A","http://www.crtm.es",0,,"Europe/Madrid",2
"par_4_44","44","DELICIAS","",40.399900000000000,-3.694200000000000,"A","http://www.crtm.es",0,,"Europe/Madrid",2
"par_4_45","45","PALOS DE LA FRONTERA","",40.403070000000000,-3.694230000000000,"A","http://www.crtm.es",0,,"Europe/Madrid",2
"par_4_46","46","EMBAJADORES","",40.405130000000000,-3.702680000000000,"A","http://www.crtm.es",0,,"Europe/Madrid",2
"par_4_47","47","LAVAPIES","",40.408510000000000,-3.700900000000000,"A","http://www.crtm.es",0,,"Europe/Madrid",2
"par_4_48","48","SOL","",40.416820000000000,-3.703260000000000,"A","http://www.crtm.es",0,"est_90_58",,1
"par_4_49","49","CALLAO","",40.420140000000000,-3.705660000000000,"A","http://www.crtm.es",0,,"Europe/Madrid",2
"par_4_5","5","ALVARADO","",40.450330000000000,-3.703310000000000,"A","http://www.crtm.es",0,,"Europe/Madrid",0
"par_4_50","50","PLAZA DE ESPAÑA","",40.423420000000000,-3.711200000000000,"A","http://www.crtm.es",0,,"Europe/Madrid",2
"par_4_51","51","VENTURA RODRIGUEZ","",40.427090000000000,-3.713410000000000,"A","http://www.crtm.es",0,,"Europe/Madrid",2
"par_4_52","52","ARGÜELLES","",40.430660000000000,-3.715960000000000,"A","http://www.crtm.es",0,,"Europe/Madrid",0
"par_4_53","53","MONCLOA","",40.435020000000000,-3.719450000000000,"A","http://www.crtm.es",0,"est_90_14",,2
"par_4_54","54","ARGÜELLES","",40.430600000000000,-3.715960000000000,"A","http://www.crtm.es",0,"est_4_52",,0
"par_4_55","55","SAN BERNARDO","",40.429660000000000,-3.705670000000000,"A","http://www.crtm.es",0,"est_4_39",,0
"par_4_56","56","BILBAO","",40.428850000000000,-3.701140000000000,"A","http://www.crtm.es",0,"est_4_9",,0
"par_4_57","57","ALONSO MARTINEZ","",40.427720000000000,-3.695940000000000,"A","http://www.crtm.es",0,,"Europe/Madrid",0
"par_4_58","58","COLON","",40.425420000000000,-3.691010000000000,"A","http://www.crtm.es",0,,"Europe/Madrid",0
"par_4_59","59","SERRANO","",40.425430000000000,-3.686630000000000,"A","http://www.crtm.es",0,,"Europe/Madrid",0
"par_4_6","6","CUATRO CAMINOS","",40.446970000000000,-3.703970000000000,"A","http://www.crtm.es",0,,"Europe/Madrid",2
"par_4_60","60","VELAZQUEZ","",40.425030000000000,-3.682920000000000,"A","http://www.crtm.es",0,,"Europe/Madrid",0
"par_4_61","61","GOYA","",40.424810000000000,-3.676850000000000,"A","http://www.crtm.es",0,"est_4_30",,2
"par_4_62","62","LISTA","",40.429170000000000,-3.675410000000000,"A","http://www.crtm.es",0,,"Europe/Madrid",0
"par_4_63","63","DIEGO DE LEON","",40.434680000000000,-3.674950000000000,"A","http://www.crtm.es",0,,"Europe/Madrid",0
"par_4_64","64","AVENIDA DE AMERICA","",40.438030000000000,-3.676640000000000,"A","http://www.crtm.es",0,"est_90_4",,0
"par_4_65","65","PROSPERIDAD","",40.444190000000000,-3.674820000000000,"A","http://www.crtm.es",0,,"Europe/Madrid",0
"par_4_66","66","ALFONSO XIII","",40.448250000000000,-3.667910000000000,"A","http://www.crtm.es",0,,"Europe/Madrid",0
"par_4_67","67","AVENIDA DE LA PAZ","",40.453540000000000,-3.661180000000000,"A","http://www.crtm.es",0,,"Europe/Madrid",0
"par_4_68","68","ARTURO SORIA","",40.455830000000000,-3.656180000000000,"A","http://www.crtm.es",0,,"Europe/Madrid",0
"par_4_69","69","ESPERANZA","",40.459450000000000,-3.645820000000000,"A","http://www.crtm.es",0,,"Europe/Madrid",0
"par_4_7","7","RIOS ROSAS","",40.441980000000000,-3.701330000000000,"A","http://www.crtm.es",0,,"Europe/Madrid",0
"par_4_70","70","CANILLAS","",40.463810000000000,-3.635600000000000,"A","http://www.crtm.es",0,,"Europe/Madrid",2
"par_4_71","71","MAR DE CRISTAL","",40.469430000000000,-3.638320000000000,"A","http://www.crtm.es",0,,"Europe/Madrid",2
"par_4_72","72","SAN LORENZO","",40.474470000000000,-3.639580000000000,"A","http://www.crtm.es",0,,"Europe/Madrid",2
"par_4_73","73","PARQUE DE SANTA MARIA","",40.477110000000000,-3.645240000000000,"A","http://www.crtm.es",0,,"Europe/Madrid",2
"par_4_74","74","CANILLEJAS","",40.449420000000000,-3.608160000000000,"A","http://www.crtm.es",0,,"Europe/Madrid",0
"par_4_75","75","TORRE ARIAS","",40.443740000000000,-3.616990000000000,"A","http://www.crtm.es",0,,"Europe/Madrid",0
"par_4_76","76","SUANZES","",40.440850000000000,-3.626840000000000,"A","http://www.crtm.es",0,,"Europe/Madrid",0
"par_4_77","77","CIUDAD LINEAL","",40.438050000000000,-3.638160000000000,"A","http://www.crtm.es",0,,"Europe/Madrid",0
"par_4_78","78","PUEBLO NUEVO","",40.435690000000000,-3.642820000000000,"A","http://www.crtm.es",0,,"Europe/Madrid",0
"par_4_79","79","QUINTANA","",40.433580000000000,-3.647360000000000,"A","http://www.crtm.es",0,,"Europe/Madrid",0
"par_4_8","8","IGLESIA","",40.434920000000000,-3.698980000000000,"A","http://www.crtm.es",0,,"Europe/Madrid",2
"par_4_80","80","EL CARMEN","",40.431890000000000,-3.657570000000000,"A","http://www.crtm.es",0,,"Europe/Madrid",0
"par_4_81","81","VENTAS","",40.430880000000000,-3.663610000000000,"A","http://www.crtm.es",0,"est_4_28",,0
"par_4_82","82","DIEGO DE LEON","",40.432350000000000,-3.674260000000000,"A","http://www.crtm.es",0,"est_4_63",,0
"par_4_83","83","NUÑEZ DE BALBOA","",40.432780000000000,-3.682580000000000,"A","http://www.crtm.es",0,,"Europe/Madrid",0
"par_4_84","84","RUBEN DARIO","",40.433160000000000,-3.689540000000000,"A","http://www.crtm.es",0,,"Europe/Madrid",0
"par_4_85","85","ALONSO MARTINEZ","",40.428280000000000,-3.695020000000000,"A","http://www.crtm.es",0,"est_4_57",,0
"par_4_86","86","CHUECA","",40.422930000000000,-3.697620000000000,"A","http://www.crtm.es",0,,"Europe/Madrid",0
"par_4_87","87","GRAN VIA","",40.419990000000000,-3.701800000000000,"A","http://www.crtm.es",0,"est_4_11",,0
"par_4_88","88","CALLAO","",40.420080000000000,-3.705660000000000,"A","http://www.crtm.es",0,"est_4_49",,2
"par_4_89","89","OPERA","",40.418090000000000,-3.709350000000000,"A","http://www.crtm.es",0,"est_4_36",,0
"par_4_9","9","BILBAO","",40.429060000000000,-3.702180000000000,"A","http://www.crtm.es",0,,"Europe/Madrid",0
"par_4_90","90","LA LATINA","",40.411280000000000,-3.708160000000000,"A","http://www.crtm.es",0,,"Europe/Madrid",0
"par_4_91","91","PUERTA DE TOLEDO","",40.407040000000000,-3.711050000000000,"A","http://www.crtm.es",0,,"Europe/Madrid",0
"par_4_92","92","ACACIAS","",40.403870000000000,-3.706640000000000,"A","http://www.crtm.es",0,,"Europe/Madrid",0
"par_4_93","93","PIRAMIDES","",40.402600000000000,-3.711380000000000,"A","http://www.crtm.es",0,,"Europe/Madrid",2
"par_4_94","94","MARQUES DE VADILLO","",40.397360000000000,-3.715960000000000,"A","http://www.crtm.es",0,,"Europe/Madrid",0
"par_4_95","95","URGEL","",40.393350000000000,-3.723600000000000,"A","http://www.crtm.es",0,,"Europe/Madrid",0
"par_4_96","96","OPORTO","",40.388460000000000,-3.731320000000000,"A","http://www.crtm.es",0,,"Europe/Madrid",0
"par_4_97","97","VISTA ALEGRE","",40.388850000000000,-3.739820000000000,"A","http://www.crtm.es",0,,"Europe/Madrid",0
"par_4_98","98","CARABANCHEL","",40.387830000000000,-3.744870000000000,"A","http://www.crtm.es",0,,"Europe/Madrid",0
"par_4_99","99","EUGENIA DE MONTIJO","",40.384390000000000,-3.751210000000000,"A","http://www.crtm.es",0,,"Europe/Madrid",2
